{"result":"ok","item":[{"department":[{"name":"国安办","job":"国家安全日常管理工作","telephone":"88460800","location":"综合楼5楼"},{"name":"综合科","job":"保密日常业务的咨询;保密处印章、保密委员会印章、保密委员办公室印章的使用;领导干部、涉密人员因私出国（境）材料审核;涉密学生资格审核、离校委托;公开发表论文（国内外）保密审查;涉密协作单位监督检查审查备案;外协合同定密、变更审查备案;涉密学位论文申请、审查、评阅答辩聘请专家审查;报奖、申请专利、院士、长江学者等申报材料审核;一级保密资格证书使用申请审核","telephone":"88495913","location":"综合楼5楼"},{"name":"技术科","job":"涉密信息设备和存储介质的申请、变更、维修、端口管理、报废、销毁等相关业务;涉密计算机安全防护软（硬）件安装、使用、卸载过程中疑难问题解答和维修;受理失泄密事件的举报、查处","telephone":"88493715","location":"综合楼5楼"},{"name":"保密处-技术科","job":"涉密设备管理审批、保密技术检查、各类票据转账、报账；涉密设备管理审批、保密技术检查等","telephone":"88493715","location":"综合服务楼5楼505"},{"name":"保密处-综合科","job":"日常事务办理接待、涉密人员因私出国材料审核；上下文件的传阅、日常资料整理和归档、印章的管；处领导办公会议的组织、记录及会议纪要的起草和日常文字工作","telephone":"","location":"综合服务楼5楼503"}],"name":"保密处"},{"department":[{"name":"值班室（长）","job":"24小时值班","telephone":"88430110","location":"综合楼"},{"name":"户籍室（友）","job":"学生集体户、教工集体户管理","telephone":"88494447","location":"综合楼"},{"name":"交通管理办公室","job":"交通管理、车辆通行证办理","telephone":"88493716","location":"综合楼"},{"name":"户籍室（长）","job":"学生集体户、教工集体户管理","telephone":"88430735","location":"综合楼"},{"name":"值班室（友）","job":"24小时值班","telephone":"88494110","location":"综合楼"},{"name":"安全保卫办公室（科技园）","job":"友谊校区、长安校区、科技园区安全保卫；校园综合治理","telephone":"88455110","location":"科技园"},{"name":"安全保卫办公室（长）","job":"友谊校区、长安校区、科技园区安全保卫；校园综合治理","telephone":"88430736","location":"综合楼"},{"name":"安全保卫办公室（友）","job":"友谊校区、长安校区、科技园区安全保卫；校园综合治理","telephone":"88491635","location":"综合楼"},{"name":"信息安全科","job":"信息化建设、网络安全","telephone":"88430733","location":"综合楼"},{"name":"政秘科（友）","job":"政审证明、无犯罪记录证明办理","telephone":"8849228","location":"综合楼"},{"name":"政秘科（长）","job":"政审证明、无犯罪记录证明办理","telephone":"88430735","location":"综合楼"},{"name":"消防技防科","job":"消防技防日常管理","telephone":"88492280","location":"综合楼"}],"name":"保卫处"},{"department":[{"name":"保卫处/公安处-户籍室 （长）","job":"学生集体户、教工集体户相关业务办理","telephone":"88430735","location":"友谊校区综合楼 4楼、长安校区综合楼 1楼综合楼综合楼124（长）"},{"name":"保卫处/公安处-值班室 （友）","job":"24小时值班","telephone":"88494110","location":"友谊校区综合楼 4楼、长安校区综合楼 1楼综合楼综合楼400（友）"},{"name":"保卫处/公安处-交通管理办公室","job":"交通管理；车辆通行证办理","telephone":"88493716","location":"友谊校区综合楼 4楼、长安校区综合楼 1楼综合楼407（友）"},{"name":"保卫处/公安处-政秘科 （长）","job":"记录证明办理","telephone":"88430733","location":"友谊校区综合楼 4楼、长安校区综合楼 1楼综合楼112（长）"},{"name":"保卫处/公安处-政秘科 （友）","job":"政审证明、无犯罪","telephone":"88492284","location":"友谊校区综合楼 4楼、长安校区综合楼 1楼综合楼 411（友）"},{"name":"保卫处/公安处-值班室 （长）","job":"25小时值班","telephone":"88430110","location":"友谊校区综合楼 4楼、长安校区综合楼 1楼综合楼综合楼125（长）"},{"name":"保卫处/公安处-安全保卫办公室 （友）","job":"友谊校区、长安校区安全保卫；校园综合治理","telephone":"88491635","location":"友谊校区综合楼 4楼、长安校区综合楼 1楼综合楼综合楼410（友）"},{"name":"保卫处/公安处-信息安全科","job":"信息化建设、网络安全","telephone":"88430736","location":"友谊校区综合楼 4楼、长安校区综合楼 1楼综合楼111（长）"},{"name":"保卫处/公安处-安全保卫办公室 （长）","job":"友谊校区、长安校区安全保卫；校园综合治理","telephone":"88430108","location":"友谊校区综合楼 4楼、长安校区综合楼 1楼综合楼综合楼118（长）"},{"name":"保卫处/公安处-消防技防科","job":"消防技防日常管理","telephone":"88492280","location":"友谊校区综合楼 4楼、长安校区综合楼 1楼综合楼405（友）"},{"name":"保卫处/公安处-科技园安全保卫办公室","job":"科技园安全保卫","telephone":"88455110","location":"友谊校区综合楼 4楼、长安校区综合楼 1楼科技园"},{"name":"保卫处/公安处-户籍室 （友）","job":"学生集体户、教工集体户相关业务办理","telephone":"88494447","location":"友谊校区综合楼 4楼、长安校区综合楼 1楼综合楼综合楼403（友）"}],"name":"保卫处/公安处"},{"department":[{"name":"材料学院（四院）-教导员办公室","job":"研究生学生工作","telephone":"88492254","location":"公字楼3楼312"},{"name":"材料学院（四院）-本科生教学办","job":"本科生教学工作","telephone":"88492641","location":"公字楼3楼321"},{"name":"材料学院（四院）-辅导员办公室","job":"本科生学生工作","telephone":"88460569","location":"公字楼3楼310"},{"name":"材料学院（四院）-科研办公室","job":"科研工作","telephone":"88495014","location":"公字楼3楼308"},{"name":"材料学院（四院）-学院办公室","job":"","telephone":"88492642","location":"公字楼3楼320"},{"name":"材料学院（四院）-研究生教学办","job":"室管理等日常事务","telephone":"88494306","location":"公字楼3楼316"},{"name":"材料学院（四院）-资料室","job":"复印、资料保管","telephone":"88460525","location":"公字楼3楼317"},{"name":"教导员办公室","job":"研究生学生工作","telephone":"88492254","location":"公字楼3楼"},{"name":"辅导员办公室","job":"本科生学生工作","telephone":"88460569","location":"公字楼3楼"},{"name":"资料室","job":"复印、资料保管","telephone":"88460525","location":"公字楼3楼"},{"name":"学院办公室","job":"","telephone":"88492642","location":"公字楼3楼"},{"name":"科研办公室","job":"科研工作","telephone":"88495014","location":"公字楼3楼"},{"name":"研究生教学办","job":"研究生教学工作","telephone":"88494306","location":"公字楼3楼"},{"name":"本科生教学办","job":"本科生教学工作","telephone":"88492641","location":"公字楼3楼"}],"name":"材料学院（四院）"},{"department":[{"name":"基建财务科","job":"基建项目管理","telephone":"88492439","location":"友谊校区研究生东馆4楼"},{"name":"工资奖助科","job":"工资、学费、公积金管理","telephone":"88460740","location":"友谊校区研究生东馆4楼"},{"name":"工资奖助科","job":"工资、学费、公积金管理","telephone":"88493156","location":"友谊校区研究生东馆4楼"},{"name":"基建财务科","job":"基建项目管理","telephone":"88495950","location":"友谊校区研究生东馆4楼"},{"name":"工资奖助科","job":"工资、学费、公积金管理","telephone":"88460617","location":"友谊校区研究生东馆4楼"},{"name":"会计科","job":"档案管理（友）","telephone":"88493895","location":"友谊校区研究生东馆4楼"},{"name":"会计科","job":"档案管理（长）","telephone":"88430880","location":"长安校区 翱翔学生活动中心"},{"name":"会计科","job":"报销业务（长）","telephone":"88430877","location":"长安校区 翱翔学生活动中心"},{"name":"会计科","job":"报销业务（长）","telephone":"88430885","location":"长安校区 翱翔学生活动中心"},{"name":"会计科","job":"报销业务（友）","telephone":"88460241","location":"友谊校区研究生东馆4楼"},{"name":"预算科","job":"预算管理、税务、物价、财务报表","telephone":"88495277","location":"友谊校区研究生东馆4楼"},{"name":"会计科","job":"报销业务（友）","telephone":"88494397","location":"友谊校区研究生东馆4楼"},{"name":"预算科","job":"预算管理、税务、物价、财务报表","telephone":"88491696","location":"友谊校区研究生东馆4楼"},{"name":"会计科","job":"报销业务（友）","telephone":"88491770","location":"友谊校区研究生东馆4楼"},{"name":"会计科","job":"报销业务（友）","telephone":"88494663","location":"友谊校区研究生东馆4楼"},{"name":"科研财务科","job":"科研立项、发票管理","telephone":"88460404","location":"友谊校区研究生东馆4楼"},{"name":"综合科","job":"综合管理","telephone":"88491367","location":"友谊校区研究生东馆4楼"}],"name":"财务处"},{"department":[{"name":"财务处 -综合科 ","job":"综合管理 ","telephone":"88491367","location":"研究生东馆 4楼、翱翔活动中心 1楼417"},{"name":"财务处 -预算科 ","job":"预算管理 ","telephone":"88495277","location":"研究生东馆 4楼、翱翔活动中心 1楼403"},{"name":"财务处 -基建财务科 ","job":"基建项目管理 ","telephone":"88492439","location":"研究生东馆 4楼、翱翔活动中心 1楼413"},{"name":"财务处 -预算科 ","job":"预算管理 ","telephone":"88491696","location":"研究生东馆 4楼、翱翔活动中心 1楼403"},{"name":"财务处 -会计科 ","job":"报销业务 ","telephone":"88460242","location":"研究生东馆 4楼、翱翔活动中心 1楼404"},{"name":"财务处 -会计科 ","job":"报销业务 ","telephone":"88494397","location":"研究生东馆 4楼、翱翔活动中心 1楼404"},{"name":"财务处 -会计科 ","job":"报销业务 （长）","telephone":"88430877","location":"研究生东馆 4楼、翱翔活动中心 1楼翱翔活动中心一楼 "},{"name":"财务处 -会计科 ","job":"报销业务 （长）","telephone":"88430885","location":"研究生东馆 4楼、翱翔活动中心 1楼翱翔活动中心一楼 "},{"name":"财务处 -会计科 ","job":"报销业务 ","telephone":"88494663","location":"研究生东馆 4楼、翱翔活动中心 1楼404"},{"name":"财务处 -会计科 ","job":"科研立项、发票管理 ","telephone":"88492608","location":"研究生东馆 4楼、翱翔活动中心 1楼410"},{"name":"财务处 -会计科 ","job":"档案管理 （长）","telephone":"88430880","location":"研究生东馆 4楼、翱翔活动中心 1楼翱翔活动中心一楼 "},{"name":"财务处 -基金管理部 ","job":"工资、学费、公积金管理 ","telephone":"88460617","location":"研究生东馆 4楼、翱翔活动中心 1楼401"},{"name":"财务处 -会计科 ","job":"档案管理 （友）","telephone":"88493895","location":"研究生东馆 4楼、翱翔活动中心 1楼402"},{"name":"财务处 -信息科 ","job":"税务、物价、财务报表、信息化管理 ","telephone":"88460404","location":"研究生东馆 4楼、翱翔活动中心 1楼409"},{"name":"财务处 -基金管理部 ","job":"工资、学费、公积金管理 ","telephone":"88460740","location":"研究生东馆 4楼、翱翔活动中心 1楼401"}],"name":"财务处 "},{"department":[{"name":"长安物业公司-办公室","job":"","telephone":"88430316","location":"公司日常事务"},{"name":"办公室","job":"公司日常事务","telephone":"88430316","location":"西苑后勤集团"},{"name":"24 小时服务电话","job":"","telephone":"88430914","location":"西苑后勤集团"},{"name":"长安物业公司-24 小时服务电话","job":"","telephone":"88430313","location":""}],"name":"长安物业公司"},{"department":[{"name":"办公室2","job":"会议接待、集中办公大厅服务","telephone":"88430159","location":"数字化大楼1楼"},{"name":"长安校区管理办公室-办公室","job":"会议接待、集中办公大厅服务","telephone":"88430159","location":"长安校区数字化大楼1楼106"},{"name":"办公室1","job":"值班、复印室","telephone":"88430088","location":"数字化大楼1楼"},{"name":"长安校区管理办公室-办公室","job":"值班、 复印室","telephone":"88430088","location":"长安校区数字化大楼1 楼104"}],"name":"长安校区管理办公室"},{"department":[{"name":"出版社-发行保障部","job":"图书、教材采购及供应 ","telephone":"88360341","location":"书海楼105"},{"name":"出版社-印制部","job":"排版、描图、试卷印刷","telephone":"88491746","location":"书海楼107"},{"name":"综合部总编室","job":"出版业务管理","telephone":"88495279","location":"友谊校区书海楼"},{"name":"出版社-财务部","job":"财务管理","telephone":"88494781","location":"书海楼213"},{"name":"编辑部","job":"图书编辑","telephone":"88493675","location":"友谊校区书海楼"},{"name":"出版社-营销策划部","job":"图书、音像出版","telephone":"88460340","location":"书海楼310"},{"name":"印制部","job":"排版、描图、试卷印刷","telephone":"88491746","location":"友谊校区书海楼"},{"name":"财务部","job":"财务管理","telephone":"88494781","location":"友谊校区书海楼"},{"name":"发行保障部","job":"图书、教材采购及供应","telephone":"88494373","location":"友谊校区书海楼"},{"name":"出版社-综合部办公室","job":"行政、人事管理","telephone":"88492314","location":"书海楼223"},{"name":"出版社-编辑部","job":"图书编辑","telephone":"88493675","location":"书海楼309"},{"name":"综合部办公室","job":"行政、人事管理","telephone":"88492314","location":"友谊校区书海楼"},{"name":"营销策划部","job":"图书、音像出版","telephone":"88460340","location":"友谊校区书海楼"},{"name":"出版社-综合部总编室","job":"出版业务管理","telephone":"88495279","location":"书海楼210"}],"name":"出版社"},{"department":[{"name":"党委宣传部-陕西大学生在线","job":"陕西大学生在线网站 专项工作","telephone":"88494223","location":"友谊校区教学中楼3楼、勇字楼12楼老图书馆405/406"},{"name":"党委宣传部-校园文化建设 办公室","job":"两校区横幅、背板管理，长安校区翱翔学生中心、星天苑南北餐厅电子屏管理","telephone":"88494395","location":"友谊校区教学中楼3楼、勇字楼12楼315"},{"name":"党委宣传部-办公室","job":"报刊征订及宣传报道安排、协调","telephone":"88460638","location":"友谊校区教学中楼3楼、勇字楼12楼309"},{"name":"党委宣传部-思想政治工作 研究室","job":"思政教育、理论学习","telephone":"88494395","location":"友谊校区教学中楼3楼、勇字楼12楼315"},{"name":"校电视台","job":"电视新闻报道、专题视频制作","telephone":"88493780","location":"勇字楼12楼"},{"name":"网络宣传教育室","job":"学校主页、新闻网","telephone":"88460735","location":"学校办公楼A座3楼"},{"name":"新媒体宣传办公室","job":"新媒体宣传管理","telephone":"88494623","location":"学校办公楼A座3楼"},{"name":"校报编辑部","job":"《西北工大报》编辑采写","telephone":"88460632","location":"学校办公楼A座3楼"},{"name":"舆情管理","job":"网络舆情管理","telephone":"88460601","location":"学校办公楼A座3楼"},{"name":"陕西大学生在线","job":"陕西大学生在线网站专项工作","telephone":"88494223","location":"老图书馆"},{"name":"思想政治工作研究室","job":"思政教育、理论学习","telephone":"88494395","location":"学校办公楼A座3楼"},{"name":"校园文化建设办公室","job":"两校区横幅、背板管理，长安校区翱翔学生活动中心、星天苑南北餐厅电子屏管理","telephone":"88494395","location":"学校办公楼A座3楼"},{"name":"办公室","job":"报刊征订及党委宣传部印章、日常事务管理工作","telephone":"88460638","location":"学校办公楼A座3楼"},{"name":"党委宣传部-校电视台","job":"电视新闻报道、专题视频制作","telephone":"88493780","location":"友谊校区教学中楼3楼、勇字楼12楼勇字楼12楼"},{"name":"党委宣传部-网络宣传教育室","job":"学校主页、新闻网、BBS、新媒体管理","telephone":"88460735","location":"友谊校区教学中楼3楼、勇字楼12楼教学中楼307/308"},{"name":"党委宣传部-校报编辑部","job":"《西北工大报》编辑采写","telephone":"88460632","location":"友谊校区教学中楼3楼、勇字楼12楼 310/311"}],"name":"党委宣传部"},{"department":[{"name":"办公室","job":"负责各民主党派、党外代表人士、统战团体以及民族宗教工作","telephone":"88491979","location":"学校办公楼A座3楼"}],"name":"党委统战部"},{"department":[{"name":"党委学生工作部（学生处、人民武装部）-综合办公室（长）","job":"学生工作干部队伍建设、 部处日常事务管理工作、 学工部、学生处公章使用","telephone":"88430686","location":"教学东楼1楼、毅字楼2楼、翱翔活动中心侧楼1、2楼239"},{"name":"心理健康中心（长）","job":"全校性的心理健康教育和宣传活动、心理健康教育教学","telephone":"88430190","location":"翱翔学生活动中心"},{"name":"心理健康中心（友）","job":"全校性的心理健康教育和宣传活动、心理健康教育教学","telephone":"88492518","location":"毅字楼"},{"name":"党委学生工作部（学生处、人民武装部）-综合办公室（友）","job":"学生工作干部队伍建设、 部处日常事务管理工作、 学工部、学生处公章使用","telephone":"88495738","location":"教学东楼1楼、毅字楼2楼、翱翔活动中心侧楼1、2楼115"},{"name":"学生就业创业指导服务中心1（长）","job":"职业生涯规划与就业指导课程、学生职业发展与就业指导团体与个体咨询、校内职业生涯规划与就业指导工作人员管理、指导职业生涯发展协会等学生社团","telephone":"88430705","location":"长安校区 启真楼3楼"},{"name":"学生就业创业指导服务中心1（长）","job":"就业计划编制；签约管理；就业情况统计；本科生录研调档；毕业派遣；毕业生户、档转出；招聘咨询查询与服务；招聘信息发布；招聘会场地预约和管理；学生就业志愿者服务队管理","telephone":"88430695","location":"长安校区 启真楼3楼"},{"name":"人民武装部","job":"“拥军拥属”、“拥政爱民”工作；学生军训；军事理论课教学；大学生兵役登记和入伍预征；指导学生军事爱好者社团","telephone":"88430703","location":"长安校区 启真楼3楼"},{"name":"学生就业创业指导服务中心1（友）","job":"就业计划编制；签约管理；就业情况统计；本科生录研调档；毕业派遣；毕业生户、档转出；招聘咨询查询与服务；招聘信息发布；招聘会场地预约和管理；学生就业志愿者服务队管理","telephone":"88494728","location":"友谊校区爱生楼2楼"},{"name":"学生资助服务中心（长）","job":"奖学金、助学金；勤工助学；生源地贷款；贷款偿还；信息化建设；学生处官网、官微管理","telephone":"88430702","location":"长安校区 启真楼3楼"},{"name":"学生资助服务中心（友）","job":"奖学金、助学金；勤工助学；生源地贷款；贷款偿还；信息化建设；学生处官网、官微管理","telephone":"88494043","location":"友谊校区爱生楼2楼"},{"name":"本科生教育办公室","job":"学生思政教育;本科生党建；“追梦班”人才培养和管理；开学典礼、毕业庆典的策划、组织、实施工作","telephone":"88430700","location":"长安校区 启真楼3楼"},{"name":"综合办公室","job":"行政、人事工作；财务预算、日常经费管理；专兼职学生辅导员选留计划的制定实施；对外联络及接待、部门工作协调、办公自动化系统管理及门户信息发布；公文公章管理；D100报告厅审批管理","telephone":"88430680","location":"长安校区 启真楼3楼"},{"name":"党委学生工作部（学生处、人民武装部）-就业计划部（友）","job":"制定毕业生就业建议性计划、就业协议书签订、毕业生派遣及改派、档案发档等","telephone":"88494728","location":"教学东楼1楼、毅字楼2楼、翱翔活动中心侧楼1、2楼126"},{"name":"党委学生工作部（学生处、人民武装部）-就业计划部（长）","job":"制定毕业生就业建议性计划、就业协议书签订、毕业生派遣及改派、档案发档等","telephone":"88430695","location":"教学东楼1楼、毅字楼2楼、翱翔活动中心侧楼1、2楼215"},{"name":"本科生管理办公室(友)","job":"学生安全管理；宿舍管理；寒暑假火车票订购、火车票磁条充磁与更换","telephone":"88494028","location":"友谊校区爱生楼2楼"},{"name":"本科生管理办公室(长)","job":"学生安全管理；宿舍管理；寒暑假火车票订购、火车票磁条充磁与更换","telephone":"88430701","location":"长安校区 启真楼3楼"},{"name":"党委学生工作部（学生处、人民武装部）-就业市场部（友）","job":"接待用人单位、收集和发布需求信息、组织招聘会、就业信息网站等","telephone":"88492274","location":"教学东楼1楼、毅字楼2楼、翱翔活动中心侧楼1、2楼124"},{"name":"党委学生工作部（学生处、人民武装部）-就业市场部（长）","job":"接待用人单位、收集和发布需求信息、组织招聘会、就业信息网站等","telephone":"88430693","location":"教学东楼1楼、毅字楼2楼、翱翔活动中心侧楼1、2楼217"},{"name":"党委学生工作部（学生处、人民武装部）-资助管理中心（长）","job":"学生国家助学贷款、各类资助的评定管理工作","telephone":"88430687","location":"教学东楼1楼、毅字楼2楼、翱翔活动中心侧楼1、2楼220"},{"name":"党委学生工作部（学生处、人民武装部）-资助管理中心（友）","job":"学生国家助学贷款、各类资助的评定管理工作","telephone":"88494043","location":"教学东楼1楼、毅字楼2楼、翱翔活动中心侧楼1、2楼121"},{"name":"党委学生工作部（学生处、人民武装部）-就业指导部（长）","job":"就业咨询指导、就业教育，开设《就业指导》和《职业生涯规划》课程等","telephone":"88430696","location":"教学东楼1楼、毅字楼2楼、翱翔活动中心侧楼1、2楼110"},{"name":"党委学生工作部（学生处、人民武装部）-就业指导部（友）","job":"就业咨询指导、就业教育，开设《就业指导》和《职业生涯规划》课程等","telephone":"88492892","location":"教学东楼1楼、毅字楼2楼、翱翔活动中心侧楼1、2楼128"},{"name":"党委学生工作部（学生处、人民武装部）-学生教育 办公室（友）","job":"学生党建与思想政治教育、奖学金评比、发放与管理等日常工作","telephone":"88492251","location":"教学东楼1楼、毅字楼2楼、翱翔活动中心侧楼1、2楼117"},{"name":"党委学生工作部（学生处、人民武装部）-学生教育 办公室（长）","job":"学生党建与思想政治教育、奖学金评比、发放与管理等日常工作","telephone":"88430686","location":"教学东楼1楼、毅字楼2楼、翱翔活动中心侧楼1、2楼112"},{"name":"党委学生工作部（学生处、人民武装部）-人民武装部（友）","job":"国防教育、学生军训及学校人武工作、开设《军事理论教育》课等","telephone":"88492431","location":"教学东楼1楼、毅字楼2楼、翱翔活动中心侧楼1、2楼113"},{"name":"党委学生工作部（学生处、人民武装部）-人民武装部（长）","job":"国防教育、学生军训及学校人武工作、开设《军事理论教育》课等","telephone":"88430705","location":"教学东楼1楼、毅字楼2楼、翱翔活动中心侧楼1、2楼111"},{"name":"党委学生工作部（学生处、人民武装部）-学生管理 办公室（友）","job":"学生管理与安全纪律教育、学生公寓管理、学生违纪处理等日常工作","telephone":"88494028","location":"教学东楼1楼、毅字楼2楼、翱翔活动中心侧楼1、2楼119"},{"name":"党委学生工作部（学生处、人民武装部）-人民武装部（长）","job":"国防教育、学生军训及学校人武工作、开设《军事理论教育》课等","telephone":"88430690","location":"教学东楼1楼、毅字楼2楼、翱翔活动中心侧楼1、2楼107"},{"name":"党委学生工作部（学生处、人民武装部）-人民武装部（长）","job":"国防教育、学生军训及学校人武工作、开设《军事理论教育》课等","telephone":"88430689","location":"教学东楼1楼、毅字楼2楼、翱翔活动中心侧楼1、2楼109"},{"name":"党委学生工作部（学生处、人民武装部）-心理健康 中心（长）","job":"进行全校性的心理健康教育和宣传活动，开展心理健康教育教学","telephone":"88430701","location":"教学东楼1楼、毅字楼2楼、翱翔活动中心侧楼1、2楼223"},{"name":"党委学生工作部（学生处、人民武装部）-学生管理 办公室（长）","job":"学生管理与安全纪律教育、学生公寓管理、学生违纪处理等日常工作","telephone":"88430685","location":"教学东楼1楼、毅字楼2楼、翱翔活动中心侧楼1、2楼229"},{"name":"党委学生工作部（学生处、人民武装部）-心理健康 中心（友）","job":"进行全校性的心理健康教育和宣传活动，开展心理健康教育教学","telephone":"88492518","location":"教学东楼1楼、毅字楼2楼、翱翔活动中心侧楼1、2楼毅字楼229"}],"name":"党委学生工作部（学生处、人民武装部）"},{"department":[{"name":"党委研究生工作部3","job":"创新创业教育","telephone":"88430687","location":"启真楼3楼 "},{"name":"党委研究生工作部-研工部","job":"研究生教育、管理、安全稳定等；研究生日常事务性工作办理；研究生助管岗位设立、受理申请；完善家庭经济困难研究生助学；开展研究生综合素质能力提升；研究生违法违纪调查处理及教育；研究生教导员队伍建设等工作。","telephone":"88492723","location":"教学东楼2楼206"},{"name":"党委研究生工作部1","job":"研究生日常管理","telephone":"88430693","location":"启真楼3楼 "},{"name":"党委研究生工作部-研工部","job":"研究生教育、管理、安全稳定等；研究生日常事务性工作办理；研究生助管岗位设立、受理申请；完善家庭经济困难研究生助学；开展研究生综合素质能力提升；研究生违法违纪调查处理及教育；研究生教导员队伍建设等工作。","telephone":"88460636","location":"教学东楼2楼207"},{"name":"党委研究生工作部4","job":"友谊校区值班点","telephone":"88460636","location":"爱生楼"},{"name":"党委研究生工作部2","job":"研究生奖助管理","telephone":"88430692","location":"启真楼3楼 "}],"name":"党委研究生工作部"},{"department":[{"name":"党委组织部-办公室2","job":"教职工党员党组织关系转接手续","telephone":"88494106","location":"教学中楼1楼135"},{"name":"办公室4","job":"干部管理、监督、考核","telephone":"88494106","location":"学校办公楼A座1楼"},{"name":"党委组织部-办公室1","job":"干部因私出国（境）手续；干部因私出国（境）证件的管理","telephone":"88491644","location":"教学中楼1楼133"},{"name":"办公室1","job":"干部因私出国（境）手续、干部因私出国（境）证件的管理、教职工党员党组织关系转接手续","telephone":"88491644","location":"学校办公楼A座1楼"},{"name":"办公室2","job":"干部教育培训、党校日常工作","telephone":"88460571","location":"学校办公楼A座1楼"},{"name":"办公室3","job":"基层党建工作","telephone":"88495685","location":"学校办公楼A座1楼"},{"name":"办公室5","job":"干部档案管理","telephone":"88460831","location":"学校办公楼A座1楼"}],"name":"党委组织部"},{"department":[{"name":"校史办公室","job":"校史馆管理（含声像、实物、人物档案管理）","telephone":"88491542","location":"友谊校区老图书馆一楼"},{"name":"科技档案室","job":"科技档案管理","telephone":"88460742","location":"友谊校区老图书馆一楼"},{"name":"综合档案室二","job":"基建档案管理、档案信息化、档案验收业务","telephone":"88493649","location":"友谊校区老图书馆一楼"},{"name":"接待室","job":"","telephone":"88493280","location":"友谊校区老图书馆一楼"},{"name":"档案馆、校史馆-接待室","job":"","telephone":"88493280","location":"友谊校区老图书馆一楼103"},{"name":"档案馆、校史馆-设备基建档案室","job":"设备档案、基建档案管理","telephone":"88493679","location":"友谊校区老图书馆一楼113"},{"name":"人事档案室","job":"","telephone":"88492473","location":"友谊校区老图书馆一楼"},{"name":"档案馆、校史馆-人事档案室","job":"","telephone":"88492473","location":"友谊校区老图书馆一楼101"},{"name":"档案馆、校史馆-文书档案室","job":"文书档案管理（含财会档案管理）","telephone":"88493679","location":"友谊校区老图书馆一楼111"},{"name":"档案馆、校史馆-科技档案室","job":"科技档案管理","telephone":"88460742","location":"友谊校区老图书馆一楼104"},{"name":"综合档案室一","job":"文书档案（含财会档案）、设备档案管理","telephone":"88493679","location":"友谊校区老图书馆一楼"},{"name":"档案馆、校史馆-校史办公室","job":"校史馆管理（含声像、实物、人物档案管理）","telephone":"88491542","location":"友谊校区老图书馆一楼107"}],"name":"档案馆、校史馆"},{"department":[{"name":"第365研究所-外贸与民品部 ","job":"外贸、民品","telephone":"88450798","location":"沣惠南路 34 号沣惠南路 34 号"},{"name":"第365研究所-办公室","job":"办公室综合业务","telephone":"88451020","location":"沣惠南路 34 号沣惠南路 34 号"},{"name":"第365研究所-财务审计部","job":"财务、审计","telephone":"88455760","location":"沣惠南路 34 号沣惠南路 34 号"},{"name":"第365研究所-保密办公室","job":"","telephone":"保密","location":"沣惠南路 34 号沣惠南路 34 号"},{"name":"第365研究所-条件保障部","job":"条件保障","telephone":"88605449","location":"沣惠南路 34 号沣惠南路 34 号"},{"name":"第365研究所-人力资源部 ","job":"人力资源","telephone":"88451000-8018","location":"沣惠南路 34 号沣惠南路 34 号"},{"name":"第365研究所-科技计划部","job":"科技计划","telephone":"88451020-8076","location":"沣惠南路 34 号沣惠南路 34 号"}],"name":"第365研究所"},{"department":[{"name":"电信公司-24小时服务电话","job":"","telephone":"88495572","location":"西苑后勤集团诚字楼东北角"},{"name":"电信公司-办公室","job":"公司日常事务","telephone":"88492283","location":"西苑后勤集团诚字楼东北角"}],"name":"电信公司"},{"department":[{"name":"电子信息学院-科研秘书、 保密员","job":"科研、保密管理，挂靠学会管理","telephone":"88431219","location":"长安校区电子信息学院1楼137"},{"name":"电子信息学院-本科生教务员","job":"本科生成绩管理，学籍管理","telephone":"88431207","location":"长安校区电子信息学院1楼141"},{"name":"电子信息学院-人事秘书","job":"人事、劳资管理，财务管理","telephone":"88431212","location":"长安校区电子信息学院1楼131"},{"name":"电子信息学院-本科生教务员、设备管理员","job":"本科生竞赛、实习、考务、 设备与实验室管理","telephone":"88431207","location":"长安校区电子信息学院1楼141"},{"name":"电子信息学院-本科生教学秘书","job":"本科生教学管理、各类教学 活动的组织和申报","telephone":"88431207","location":"长安校区电子信息学院1楼141"},{"name":"本科生辅导员","job":"本科生思想政治教育与管理；班集体和党团建设；学风建设；就业指导和服务；学生心理健康教育以及奖助贷勤补、评优等管理工作","telephone":"88431210","location":"长安校区电子信息学院1楼"},{"name":"本科生辅导员","job":"本科生思想政治教育与管理；班集体和党团建设；学风建设；就业指导和服务；学生心理健康教育以及奖助贷勤补、评优等管理工作","telephone":"88431209","location":"长安校区电子信息学院1楼"},{"name":"研究生教导员","job":"研究生思想政治教育与管理；班集体和党团建设；学风建设；就业指导和服务；学生心理健康教育以及奖助贷勤补；评优等管理工作","telephone":"88431210","location":"长安校区电子信息学院1楼"},{"name":"学科秘书办","job":"学科建设与发展规划、学术委员会日常工作、非全日制研究生教学管理、研究生基金管理等","telephone":"88431208","location":"长安校区电子信息学院1楼"},{"name":"财务办公室","job":"经费预算、审核、网报等工作","telephone":"88431211","location":"长安校区电子信息学院1楼"},{"name":"研究生教学秘书办","job":"研究生教学管理工作","telephone":"88431208","location":"长安校区电子信息学院1楼"},{"name":"科研秘书兼保密员办","job":"保密管理、军工科研管理、科研综合管理、知识产权管理，科研信息统计分析等","telephone":"88431219","location":"长安校区电子信息学院1楼"},{"name":"本科生教学秘书办","job":"本科生教学管理工作","telephone":"88431207","location":"长安校区电子信息学院1楼"},{"name":"资料室","job":"图书资料复印与管理、信件报刊管理、门禁卡管理等工作","telephone":"88431211","location":"长安校区电子信息学院1楼"},{"name":"电子信息学院-研究生教导员","job":"研究生思想政治教育与管理","telephone":"88431210","location":"长安校区电子信息学院1楼125"},{"name":"科研秘书办","job":"基础研究与国际科技合作、高新技术与产学研合作、科研平台与仪器设备共享、学术交流与学会管理等工作","telephone":"88431213","location":"长安校区电子信息学院1楼"},{"name":"电子信息学院-本科生辅导员","job":"本科生思想政治教育与管理","telephone":"88431209","location":"长安校区电子信息学院1楼119"}],"name":"电子信息学院"},{"department":[{"name":"电子信息学院（八院）-院长秘书、国际化办公室","job":"外事管理、国际化办公室及行政秘书工作","telephone":"88431203","location":"长安校区电子信息学院 1楼139"},{"name":"电子信息学院（八院）-学科建设、博士生教学秘书","job":"学科建设、博士研究生、博士留学生教学管理","telephone":"88431208","location":"长安校区电子信息学院 1楼145"},{"name":"电子信息学院（八院）-硕士生教学秘书","job":"硕士研究生、工程硕士、硕士留学生教学管理","telephone":"88431208","location":"长安校区电子信息学院 1楼145"},{"name":"电子信息学院（八院）-资料员","job":"印信、复印、图书管理","telephone":"88431211","location":"长安校区电子信息学院 1楼149"},{"name":"电子信息学院（八院）-学院办公室1","job":"院办管理、党务工作、文化建设","telephone":"88431218","location":"长安校区电子信息学院 1楼153"},{"name":"电子信息学院（八院）-学院办公室2","job":"公用房管理、后勤、安保、工会工作","telephone":"88431206","location":"长安校区电子信息学院 1楼151"},{"name":"学院办公室","job":"院办管理、党建工作、文化建设、公共资源管理、后勤保障、安全保卫、工会与离退休管理等","telephone":"88431206","location":"长安校区电子信息学院 1楼"},{"name":"国际化兼行政秘书办公室","job":"外事管理、国际化办公室及行政秘书工作","telephone":"88431203","location":"长安校区电子信息学院 1楼"},{"name":"人事秘书办","job":"人才引进、人事劳资、职称评聘、岗位考核、财务管理等","telephone":"88431212","location":"长安校区电子信息学院 1楼"}],"name":"电子信息学院（八院）"},{"department":[{"name":"学院办公室","job":"行政、党务","telephone":"88431112","location":"长安校区动力与能源学院楼"},{"name":"学院办公室","job":"组织管理、国资","telephone":"88431107","location":"长安校区动力与能源学院楼"},{"name":"动力与能源学院（七院）-本科教学办","job":"本科教学","telephone":"88430177","location":"长安校区动力与能源学院楼南 237"},{"name":"动力与能源学院（七院）-研究生教学办","job":"科研、保密","telephone":"88430177","location":"长安校区动力与能源学院楼南 237"},{"name":"动力与能源学院（七院）-科研办、保密办","job":"科研、保密","telephone":"88431104","location":"长安校区动力与能源学院楼南 233"},{"name":"动力与能源学院（七院）-研究生教导员办","job":"研究生工作","telephone":"88431109","location":"长安校区动力与能源学院楼南 125"},{"name":"本科生辅导员办","job":"本科工作","telephone":"88431101","location":"长安校区动力与能源学院楼"},{"name":"动力与能源学院（七院）-航空推进系","job":"系办工作","telephone":"88431119","location":"长安校区动力与能源学院楼南 451"},{"name":"动力与能源学院（七院）-学院办公室","job":"行政、党务","telephone":"88431116","location":"长安校区动力与能源学院楼南 219B"},{"name":"研究生教导员办","job":"研究生工作","telephone":"88431101","location":"长安校区动力与能源学院楼"},{"name":"动力与能源学院（七院）-本科生辅导员办","job":"本科工作","telephone":"88431101","location":"长安校区动力与能源学院楼南 129"},{"name":"本科教学办","job":"本科教学","telephone":"88430177","location":"长安校区动力与能源学院楼"},{"name":"科研办、保密办","job":"科研、保密","telephone":"88431104","location":"长安校区动力与能源学院楼"},{"name":"研究生教学办","job":"研究生教学","telephone":"88430177","location":"长安校区动力与能源学院楼"}],"name":"动力与能源学院（七院）"},{"department":[{"name":"综合办公室","job":"人事、行政、财务、资产、接待及档案资料管理等","telephone":"88492224","location":"友谊校区 学校办公楼A座1楼"},{"name":"战略规划研究室2","job":"政策与战略研究基金管理、综合改革推进","telephone":"88460240","location":"友谊校区 学校办公楼A座1楼"},{"name":"发展规划处-高等教育研究所","job":"高等教育研究、高等教育研究基金管理","telephone":"88493540","location":"教学中楼1楼122"},{"name":"发展规划处-政策与 战略研究室","job":"信息与综合统计工作","telephone":"88460730","location":"教学中楼1楼107"},{"name":"发展规划处-对外联络办公室","job":"对外联络（多渠道筹措，落实建设项目和经费）","telephone":"88460729","location":"教学中楼1楼107"},{"name":"发展规划处-政策与 战略研究室","job":"政策研究与战略研究、发展规划、政策研究基金管理","telephone":"88493058","location":"教学中楼1楼109"},{"name":"重大项目办公室","job":"国家及省部统筹支持一流大学、一流学科项目及各种重大专项建设项目管理","telephone":"88495968","location":"友谊校区 学校办公楼A座1楼"},{"name":"发展规划处-学报（社科版） 编辑部","job":"西北工业大学学报（社科版）编辑、发行、交流等","telephone":"88493140","location":"教学中楼1楼131"},{"name":"发展规划处-综合办公室","job":"处人事、行政、财务、资产、接待及档案资料管理等","telephone":"88492224","location":"教学中楼1楼116"},{"name":"校园规划办公室","job":"校园规划；国拨资金基本建设项目立项、计划管理；中央高校改善基本办学条件专项资金项目管理","telephone":"88494358","location":"友谊校区 学校办公楼A座1楼"},{"name":"战略规划研究室1","job":"发展战略研究、发展规划编制等","telephone":"88493540","location":"友谊校区 学校办公楼A座1楼"},{"name":"战略规划研究室3","job":"综合统计","telephone":"88460730","location":"友谊校区 学校办公楼A座1楼"},{"name":"对外合作办公室","job":"校际、校地、校企、海外合作；异地研究院筹建；处网站及信息科管理","telephone":"88460891","location":"友谊校区 学校办公楼A座1楼"},{"name":"发展规划处-重大项目建设 办公室","job":"国家统筹支持一流大学、一流学科项目及各种重大专项建设项目管理","telephone":"88495968","location":"教学中楼1楼111"},{"name":"发展规划处-校园规划办公室","job":"校园规划，基本建设项目立项、计划管理，中央高校改善基本办学条件专项资金项目管理","telephone":"88494358","location":"教学中楼1楼110"}],"name":"发展规划处"},{"department":[{"name":"技术员室","job":"测试业务","telephone":"88430850","location":"友谊校区诚字楼1楼"},{"name":"办公室","job":"办公室综合业务","telephone":"88460747","location":"友谊校区诚字楼1楼"}],"name":"分析测试中心"},{"department":[{"name":"服务中心-办公室","job":"公司日常事务","telephone":"88494399","location":"西苑后勤集团学生公寓6号楼"},{"name":"服务中心-校园卡服务部","job":"","telephone":"88430300","location":""},{"name":"服务中心-一卡通收费大厅","job":"","telephone":"88495600","location":"一卡通收费"}],"name":"服务中心"},{"department":[{"name":"工程实践训练中心-创新部","job":"科研","telephone":"88430383","location":"工程实践训练中心C112"},{"name":"工程实践训练中心-冷加工教学部","job":"冷加工教学","telephone":"88430377","location":"工程实践训练中心C101"},{"name":"工程实践训练中心-热加工教学部","job":"热加工教学","telephone":"88430380","location":"工程实践训练中心E116"},{"name":"中心教学","job":"教学管理","telephone":"88430371","location":"长安校区工程实践训练中心"},{"name":"工程实践训练中心-电子教学部","job":"电子教学","telephone":"88430381","location":"工程实践训练中心A301"},{"name":"工程实践训练中心-现代工程教学部","job":"现代工程教学","telephone":"88430382","location":"工程实践训练中心A211"},{"name":"冷加工教学部","job":"冷加工教学","telephone":"88430377","location":"长安校区工程实践训练中心"},{"name":"中心党务","job":"党务","telephone":"88430371","location":"长安校区工程实践训练中心"},{"name":"热加工教学部","job":"热加工教学","telephone":"88430380","location":"长安校区工程实践训练中心"},{"name":"电子教学部","job":"电子教学","telephone":"88430381","location":"长安校区工程实践训练中心"},{"name":"创新部","job":"科研","telephone":"88430383","location":"长安校区工程实践训练中心"},{"name":"工程实践训练中心-办公室","job":"人事、教学等综合管理","telephone":"88430373","location":"工程实践训练中心A413"},{"name":"现代工程教学部","job":"现代工程教学","telephone":"88430382","location":"长安校区工程实践训练中心"},{"name":"工程实践训练中心-中心党务","job":"党务","telephone":"88430371","location":"工程实践训练中心A414"},{"name":"工程实践训练中心-中心教学","job":"教学管理","telephone":"88430371","location":"工程实践训练中心A414"},{"name":"办公室","job":"人事、教学等综合管理","telephone":"88430371","location":"长安校区工程实践训练中心"}],"name":"工程实践训练中心"},{"department":[{"name":"工会-办公室","job":"工会日常工作","telephone":"88492256","location":"健翔楼3楼306"},{"name":"工会-民主管理、宣传办公室","job":"民主管理、教代会、师德师风、宣传工作等","telephone":"88494341","location":"健翔楼3楼308"},{"name":"工会-活动中心 管理办公室","job":"健翔楼管理、劳模、会员入会工作","telephone":"88494345","location":"健翔楼3楼305"},{"name":"活动中心管理办公室","job":"健翔楼管理、会员入会工作","telephone":"88494345","location":"健翔楼3楼"},{"name":"青工文体宣传部","job":"青年教师工作、文体活动、宣传工作等","telephone":"88492466","location":"健翔楼3楼"},{"name":"办公室","job":"工会日常工作、扶贫工作、女工工作、福利工作等","telephone":"88492256","location":"健翔楼3楼"},{"name":"组织民主管理部","job":"民主管理、教代会、师德师风、评选表彰等","telephone":"88494341","location":"健翔楼3楼"}],"name":"工会"},{"department":[{"name":"研究生教学办","job":"研究生教学管理","telephone":"88431782","location":"长安校区管理学院1、2楼"},{"name":"本科生教学办","job":"本科生教学管理","telephone":"88431783","location":"长安校区管理学院1、2楼"},{"name":"学院办公室","job":"院务协调、接待、学院网站系统管理、院务信息电子屏审核发布、学院党员组织关系接转、信访、印章管理","telephone":"88431781","location":"长安校区管理学院1、2楼"},{"name":"实验教学中心","job":"本科生、研究生实验教学","telephone":"88431788","location":"长安校区管理学院1、2楼"},{"name":"科研办公室","job":"科研工作管理","telephone":"88431784","location":"长安校区管理学院1、2楼"},{"name":"研究生教导员办","job":"研究生管理","telephone":"88431786","location":"长安校区管理学院1、2楼"},{"name":"本科生辅导员 办公室","job":"","telephone":"88431792","location":"长安校区管理学院1、2楼"},{"name":"本科生辅导员 办公室","job":"","telephone":"88431793","location":"长安校区管理学院1、2楼"},{"name":"本科生辅导员 办公室","job":"","telephone":"88431785","location":"长安校区管理学院1、2楼"},{"name":"管理学院-学院办公室","job":"院务协调、接待、学院网站系统管理、院务信息电子屏审核发布、学院党员组织关系接转、信访、印章管理","telephone":"88431781","location":"长安校区管理学院1、2楼209"},{"name":"管理学院-研究生教学办","job":"研究生教学管理","telephone":"88431782","location":"长安校区管理学院1、2楼213"},{"name":"本科生辅导员 办公室","job":"","telephone":"88431791","location":"长安校区管理学院1、2楼"},{"name":"管理学院-本科生教学办","job":"本科生教学管理","telephone":"88431783","location":"长安校区管理学院1、2楼217"},{"name":"管理学院-本科生教学办","job":"科研工作管理","telephone":"88431784","location":"长安校区管理学院1、2楼209"},{"name":"管理学院-资料室","job":"书籍资料查、借阅","telephone":"88431787","location":"长安校区管理学院1、2楼208"},{"name":"管理学院-实验室","job":"本科生、研究生实验教学","telephone":"88431788","location":"长安校区管理学院1、2楼112"},{"name":"管理学院-本科生辅导员 办公室","job":"11级本科生管理","telephone":"88431785","location":"长安校区管理学院1、2楼109"},{"name":"管理学院-研究生教导员办","job":"研究生管理","telephone":"88431786","location":"长安校区管理学院1、2楼113"},{"name":"管理学院-本科生辅导员 办公室","job":"13级本科生管理","telephone":"88431792","location":"长安校区管理学院1、2楼103"},{"name":"管理学院-本科生辅导员 办公室","job":"14级本科生管理","telephone":"88431791","location":"长安校区管理学院1、2楼111"},{"name":"管理学院-本科生辅导员 办公室","job":"12级本科生管理","telephone":"88431793","location":"长安校区管理学院1、2楼105"}],"name":"管理学院"},{"department":[{"name":"综合科","job":"办公室;教师出国（境）审批、证照","telephone":"88495355","location":"友谊校区 毅字楼7楼"},{"name":"交流科","job":"学生派出","telephone":"88491264","location":"友谊校区 毅字楼7楼"},{"name":"专家科","job":"引智项目、国际会议","telephone":"88492812","location":"友谊校区 毅字楼7楼"},{"name":"留学生招生办公室","job":"留学生招生工作","telephone":"88494381","location":"友谊校区 毅字楼7楼"},{"name":"国际联盟办公室","job":"大学联盟事宜","telephone":"88492267","location":"友谊校区 毅字楼7楼"},{"name":"综合科","job":"办公室;教师出国（境）审批、证照","telephone":"88492267","location":"友谊校区 毅字楼7楼"},{"name":"国际教育学办公室","job":"学院日常事务","telephone":"88492721","location":"友谊校区 毅字楼7楼"},{"name":"汉语培训中心","job":"汉语教学","telephone":"88492984","location":"友谊校区 毅字楼7楼"},{"name":"留学生管理","job":"友谊校区留学生管理","telephone":"88495735","location":"友谊校区 毅字楼7楼"},{"name":"办公室","job":"长安校区留学生管理","telephone":"88430910","location":"长安校区 云天苑F楼"}],"name":"国际合作处(国际教育学院)"},{"department":[{"name":"国际合作处（国合）、国际教育学院 -留学生管理办公室","job":"长安校区留学生管理","telephone":"88430910","location":"毅字楼 7楼、长安校区云 F云 F227"},{"name":"国际合作处（国合）、国际教育学院 -留学生管理办公室","job":"友谊校区留学生管理","telephone":"88495735","location":"毅字楼 7楼、长安校区云 F715"},{"name":"国际合作处（国合）、国际教育学院 -汉语培训中心","job":"汉语教学","telephone":"88492984","location":"毅字楼 7楼、长安校区云 F718"},{"name":"国际合作处（国合）、国际教育学院 -交流科","job":"学生派出","telephone":"88491264","location":"毅字楼 7楼、长安校区云 F720"},{"name":"国际合作处（国合）、国际教育学院 -综合科","job":"办公室","telephone":"88492267","location":"毅字楼 7楼、长安校区云 F724"},{"name":"国际合作处（国合）、国际教育学院 -综合科","job":"教师出国境审批、证照","telephone":"88495355","location":"毅字楼 7楼、长安校区云 F723"},{"name":"国际合作处（国合）、国际教育学院 -留学生招生","job":"留学生招生工作","telephone":"88494381","location":"毅字楼 7楼、长安校区云 F717"},{"name":"国际合作处（国合）、国际教育学院 -外国专家科","job":"办公室","telephone":"88492812","location":"毅字楼 7楼、长安校区云 F722"},{"name":"国际合作处（国合）、国际教育学院 -外国专家科","job":"引智项目、国际会议","telephone":"88491424","location":"毅字楼 7楼、长安校区云 F721"},{"name":"国际合作处（国合）、国际教育学院 -国际教育学院办公室","job":"学院日常事务","telephone":"88492721","location":"毅字楼 7楼、长安校区云 F719"}],"name":"国际合作处（国合）、国际教育学院"},{"department":[{"name":"学院办公室","job":"人事、工程硕士管理、保密教育培训、学院印章、会议室管理","telephone":"88495027","location":"图书馆1楼南侧"},{"name":"国家保密学院-教学办公室","job":"本科生、研究生部分教学 管理工作","telephone":"88460540","location":"图书馆1楼南侧图书馆一楼南侧"},{"name":"教学办公室","job":"本科生、研究生部分教学 管理工作","telephone":"88460540","location":"图书馆1楼南侧"},{"name":"国家保密学院-学院办公室","job":"人事、工程硕士管理、保密教育培训、学院印章、会议室管理","telephone":"88495027","location":"图书馆1楼南侧图书馆一楼南侧"}],"name":"国家保密学院"},{"department":[{"name":"资产管理办公室2","job":"资产管理、公用房管理","telephone":"88494515","location":"研究生东馆5楼"},{"name":"资产管理办公室1","job":"资产管理、公用房管理","telephone":"88493468","location":"研究生东馆5楼"},{"name":"住房改革办公室1","job":"家属房分配管理","telephone":"88492454","location":"研究生东馆5楼"},{"name":"住房改革办公室2","job":"家属房分配管理","telephone":"88494297","location":"研究生东馆5楼"},{"name":"技安环保办公室","job":"安全环保管理","telephone":"88492140","location":"研究生东馆5楼"},{"name":"法律事务办公室","job":"合同审查、诉讼、法律咨询业务","telephone":"88491128","location":"研究生东馆5楼"},{"name":"综合办公室","job":"综合管理","telephone":"88495056","location":"研究生东馆5楼"},{"name":"经营性资产管理办公室","job":"经营性资产管理","telephone":"88492804","location":"研究生东馆5楼"}],"name":"国有资产管理处"},{"department":[{"name":"国有资产管理处（国资处） -招标与设备采购中心","job":"招投标业务","telephone":"88493786","location":"研究生东馆 5楼517"}],"name":"国有资产管理处 （国资处）"},{"department":[{"name":"国有资产管理处（国资处） -综合管理办公室","job":"处办","telephone":"88495056","location":"研究生东馆 5楼510"},{"name":"国有资产管理处（国资处） -技安环保管理办公室","job":"安全环保管理业务","telephone":"88492140","location":"研究生东馆 5楼512"},{"name":"国有资产管理处（国资处） -法律事务管理办公室","job":"合同审查业务","telephone":"88491128","location":"研究生东馆 5楼503"},{"name":"国有资产管理处（国资处） -经营性资产管理办公室","job":"经营性房屋管理业务","telephone":"88492804","location":"研究生东馆 5楼506"},{"name":"国有资产管理处（国资处） -住房改革管理办公室","job":"家属房管理业务","telephone":"88492454","location":"研究生东馆 5楼511"},{"name":"国有资产管理处（国资处） -资产管理办公室","job":"资产管理业务","telephone":"88493468","location":"研究生东馆 5楼508"}],"name":"国有资产管理处（国资处）"},{"department":[{"name":"研究生教学办","job":"研究生教务","telephone":"88493770","location":"友谊校区航海大楼2楼"},{"name":"学院办公室","job":"行政、党务","telephone":"88492611/88492612","location":"友谊校区航海大楼2楼"},{"name":"学生工作办","job":"学生工作","telephone":"88494920","location":"友谊校区航海大楼2楼"},{"name":"本科教学办/国际化办公室","job":"本科教务、国际化","telephone":"88491754","location":"友谊校区航海大楼2楼"},{"name":"科研办","job":"科研管理","telephone":"88492599","location":"友谊校区航海大楼2楼"},{"name":"安全、国资办公室","job":"安全生产、国有资产管理","telephone":"88493931","location":"友谊校区航海大楼2楼"},{"name":"航海学院（三院）-学院办公室","job":"OA系统管理、电子屏发布审核、印信、出差手续办理、会务、党务、 门卫及门禁管理","telephone":"88492611","location":"友谊校区航海大楼2楼211"},{"name":"航海学院（三院）-本科教学办","job":"本科教务","telephone":"88491754","location":"友谊校区航海大楼2楼214"},{"name":"航海学院（三院）-研究生教学办","job":"研究生教务","telephone":"88493770","location":"友谊校区航海大楼2楼206"},{"name":"航海学院（三院）-网络办","job":"网络管理","telephone":"88493931","location":"友谊校区航海大楼2楼315"},{"name":"航海学院（三院）-科研办","job":"科研管理","telephone":"88492599","location":"友谊校区航海大楼2楼210"},{"name":"航海学院（三院）-学生工作办","job":"学生工作","telephone":"88494920","location":"友谊校区航海大楼2楼215"}],"name":"航海学院（三院）"},{"department":[{"name":"学院办公室","job":"印信管理","telephone":"88493671","location":"航空楼A座3楼"},{"name":"航空学院（一院）-人事党务秘书","job":"相关人事党务方面工作","telephone":"88492583","location":"航空楼A座7楼A711"},{"name":"航空学院（一院）-工程硕士培养、校友会、工会","job":"工会、工程硕士培养、校友会","telephone":"88494925","location":"航空楼A座7楼A721"},{"name":"航空学院（一院）-本科生辅导员","job":"本科生思想教育、组织、管理","telephone":"88495639","location":"航空楼A座7楼A713"},{"name":"航空学院（一院）-本科生教学秘书","job":"本科生教学管理","telephone":"88460478","location":"航空楼A座7楼A719"},{"name":"大型仪器设备管理员办公室","job":"大型仪器设备、资产管理","telephone":"88492583","location":"航空楼A座3楼"},{"name":"航空学院（一院）-研究生教导员 ","job":"研究生思想教育、组织、管理","telephone":"88494455","location":"航空楼A座7楼A723"},{"name":"航空学院（一院）-科研秘书 ","job":"科研管理","telephone":"88494299","location":"航空楼A座7楼A707"},{"name":"航空学院（一院）-研究生教学秘书","job":"研究生教学管理","telephone":"88495820","location":"航空楼A座7楼A715"},{"name":"航空学院（一院）-保密","job":"保密工作、论文发表审查","telephone":"88494299","location":"航空楼A座7楼A707"},{"name":"航空学院（一院）-教学督导","job":"教学监督指导","telephone":"88493672","location":"航空楼A座7楼A719"},{"name":"工程硕士培养、校友会、工会","job":"工会、工程硕士培养、校友会","telephone":"88494925","location":"航空楼A座3楼"},{"name":"人事党务秘书","job":"相关人事党务方面工作","telephone":"88460479","location":"航空楼A座3楼"},{"name":"本科生辅导员","job":"本科生思想教育、组织、管理","telephone":"88495639","location":"航空楼A座3楼"},{"name":"研究生教导员 ","job":"研究生思想教育、组织、管理","telephone":"88494455","location":"航空楼A座3楼"},{"name":"本科生教学秘书","job":"本科生教学管理","telephone":"88460478","location":"航空楼A座3楼"},{"name":"研究生教学秘书","job":"研究生教学管理","telephone":"88495820","location":"航空楼A座3楼"},{"name":"科研秘书 ","job":"科研管理","telephone":"88494299","location":"航空楼A座3楼"},{"name":"保密办公室","job":"保密工作、论文发表审查","telephone":"88494299","location":"航空楼A座3楼"},{"name":"航空学院（一院）-学院办公室","job":"印信管理","telephone":"88493671","location":"航空楼A座7楼A717"}],"name":"航空学院（一院）"},{"department":[{"name":"学生工作办公室","job":"长安校区学生事务管理","telephone":"88430276","location":""},{"name":"航天创新实践中心","job":"创新实践管理、仪器设备共享、安全生产管理、资产管理","telephone":"88495681","location":"航天学院1 号楼5楼"},{"name":"科研管理办","job":"保密管理工作","telephone":"88460313","location":"航天学院4 号楼4楼"},{"name":"学生工作办公室","job":"本科生思政教育、学生事务管理","telephone":"88460728","location":"航天学院4 号楼4楼"},{"name":"航天学院（二院）-专项工作办","job":"学术委员会事务、其他专项工作","telephone":"88460757","location":"航天学院4 号楼1楼四层415"},{"name":"科研管理办","job":"科研管理服务工作、学术交流管理工作","telephone":"88492782","location":"航天学院4 号楼4楼"},{"name":"教学管理办公室","job":"本科教学管理、学籍管理工作","telephone":"88494854","location":"航天学院4 号楼4楼"},{"name":"教学管理办公室","job":"留学生培养管理、国际合作","telephone":"88460892","location":"航天学院4 号楼4楼"},{"name":"学院办公室","job":"用印管理、出差审批","telephone":"88492781","location":"航天学院4 号楼4楼"},{"name":"教学管理办公室","job":"研究生教学管理、学籍管理、工程硕士培养工作","telephone":"88460301","location":"航天学院4 号楼4楼"},{"name":"学院办公室","job":"党务（教职工）、人事、信息工作","telephone":"88460431","location":"航天学院4 号楼4楼"},{"name":"学生工作办公室","job":"研究生思政教育、学生事务管理","telephone":"88460390","location":"航天学院4 号楼4楼"},{"name":"航天学院（二院）-本科生辅导员办","job":"本科生思政教育、学生事务管理","telephone":"88460728","location":"航天学院4 号楼1楼四层403"},{"name":"航天学院（二院）-研究生教导员办","job":"研究生思政教育、学生事务管理","telephone":"88460390","location":"航天学院4 号楼1楼四层402"},{"name":"航天学院（二院）-保密管理办","job":"保密管理工作","telephone":"88460313","location":"航天学院4 号楼1楼四层412"},{"name":"航天学院（二院）-科研管理办","job":"科研管理服务工作、学术交流管理工作","telephone":"88492782","location":"航天学院4 号楼1楼四层406"},{"name":"航天学院（二院）-研究生培养办","job":"研究生教学管理、学籍管理、工程硕士培养工作","telephone":"88460301","location":"航天学院4 号楼1楼四层404"},{"name":"航天学院（二院）-学院办公室","job":"用印管理、出差审批","telephone":"88492781","location":"航天学院4 号楼1楼四层401"},{"name":"航天学院（二院）-本科生教学办","job":"本科教学管理、学籍管理工作","telephone":"88494854","location":"航天学院4 号楼1楼四层405"},{"name":"航天学院（二院）-学院办公室","job":"党务（教职工）、人事、信息工作","telephone":"88460431","location":"航天学院4 号楼1楼四层401"}],"name":"航天学院（二院）"},{"department":[{"name":"运行保障科（长）","job":"对后勤综合服务保障工作进行监管、考核","telephone":"88430853","location":"综合楼2楼"},{"name":"修缮科（友）","job":"房屋、基础设施维修及协调工作","telephone":"88493053","location":"学校办公楼A座3楼"},{"name":"修缮科（长）","job":"房屋、基础设施维修及协调工作","telephone":"88430852","location":"综合楼2楼"},{"name":"后勤办公室-办公室","job":"拟定论证后勤改革发展规划方案","telephone":"88492571","location":"教学中楼3楼322"},{"name":"运行保障科（友）","job":"对后勤综合服务保障工作进行监管、考核","telephone":"88492571","location":"学校办公楼A座3楼"}],"name":"后勤办公室"},{"department":[{"name":"人力资源部","job":"","telephone":"88491582","location":"西苑后勤集团"},{"name":"财务部","job":"","telephone":"88493642","location":"西苑后勤集团"},{"name":"办公室","job":"","telephone":"88493099","location":"西苑后勤集团"},{"name":"后勤产业集团-后勤集团","job":"24 小时服务电话","telephone":"88491234","location":"西苑后勤集团一站式服务大厅（友）"},{"name":"24小时服务电话","job":"","telephone":"88491234","location":"西苑后勤集团"}],"name":"后勤产业集团"},{"department":[{"name":"一站式服务大厅（友）","job":"校园卡业务受理","telephone":"88495600","location":"西苑后勤集团"},{"name":"办公室","job":"公司日常事务","telephone":"88493889","location":"西苑后勤集团"},{"name":"一站式服务大厅2（长）","job":"校园卡业务受理","telephone":"88430300","location":"西苑后勤集团"},{"name":"一站式服务大厅1（长）","job":"校园卡业务受理","telephone":"88430000","location":"西苑后勤集团"},{"name":"24小时服务电话","job":"数字电视电话报修","telephone":"88495572","location":"西苑后勤集团"}],"name":"后勤服务中心"},{"department":[{"name":"后勤集团-财务部","job":"","telephone":"88493642","location":"西苑后勤集团西苑后勤办公室 224"},{"name":"后勤集团-企业管理部","job":"","telephone":"88460450","location":""},{"name":"后勤集团-办公室","job":"","telephone":"88493099","location":""}],"name":"后勤集团"},{"department":[{"name":"基础教育中心（附小）-保安室","job":"门卫管理","telephone":"88460671","location":"教学南楼一层"},{"name":"基础教育中心（附小）-食堂办","job":"午餐午休管理","telephone":"88493096","location":"教学南楼一层226"},{"name":"基础教育中心（附小）-医务室","job":"","telephone":"常见病处理、传染病预防","location":"教学南楼一层东楼二层"},{"name":"总务处","job":"后勤、工程、维修等","telephone":"88492402","location":"西工大附中初中部2号楼1楼"},{"name":"基础教育中心（附小）-财务室","job":"财务、总务管理","telephone":"88494238","location":"教学南楼一层教学南楼一层"},{"name":"医务室","job":"常见病处理、传染病预防","telephone":"88492406—209","location":"教学南楼1楼"},{"name":"保安室","job":"门卫管理","telephone":"88460671","location":"教学南楼1楼"},{"name":"财务室","job":"财务、总务管理","telephone":"88494238","location":"教学南楼1楼"},{"name":"教导处","job":"学籍、教务管理","telephone":"88460670","location":"教学南楼1楼"},{"name":"基础教育中心（附小）-教导处","job":"学籍、教务管理","telephone":"88460670","location":"教学南楼一层教学南楼一层"},{"name":"食堂办","job":"午餐午休管理","telephone":"88493096","location":"教学南楼1楼"}],"name":"基础教育中心（附小）"},{"department":[{"name":"团委","job":"团工作日常管理","telephone":"88460534","location":"西工大附中高中部行政楼"},{"name":"政教处","job":"德育、纪律工作","telephone":"88493276","location":"西工大附中初中部2号楼1楼"},{"name":"教务处","job":"教务、教学、考务","telephone":"88494872","location":"西工大附中初中部2号楼1楼"},{"name":"办公室","job":"出具证明、审核盖章","telephone":"88492401","location":"西工大附中高中部行政楼"},{"name":"政教处","job":"德育、纪律工作","telephone":"88460263","location":"西工大附中高中部行政楼"},{"name":"基础教育中心（附中）-总务处","job":"后勤、工程、维修等","telephone":"88492402","location":"西工大附中初中部2号楼一层东侧平房"},{"name":"基础教育中心（附中）-办公室","job":"出具证明、审核盖章","telephone":"88460470","location":"西工大附中初中部2号楼一层2 号楼一层"},{"name":"基础教育中心（附中）-团委","job":"团工作日常管理","telephone":"88460285","location":"西工大附中初中部2号楼一层2 号楼一层"},{"name":"基础教育中心（附中）-总务处","job":"后勤、工程、维修等","telephone":"88460298","location":"西工大附中高中部行政楼206"},{"name":"基础教育中心（附中）-团委","job":"团工作日常管理","telephone":"88466534","location":"西工大附中高中部行政楼213"},{"name":"基础教育中心（附中）-政教处","job":"德育、纪律工作","telephone":"88493276","location":"西工大附中初中部2号楼一层东侧平房"},{"name":"基础教育中心（附中）-教务处","job":"教务、教学、考务","telephone":"88494872","location":"西工大附中初中部2号楼一层2 号楼一层"},{"name":"基础教育中心（附中）-政教处","job":"德育、纪律工作","telephone":"88460263","location":"西工大附中高中部行政楼108"},{"name":"基础教育中心（附中）-办公室","job":"出具证明、审核盖章","telephone":"88492401","location":"西工大附中高中部行政楼316"},{"name":"基础教育中心（附中）-教务处","job":"教务、教学、考务","telephone":"88460471","location":"西工大附中高中部行政楼105"},{"name":"总务处","job":"后勤、工程、维修等","telephone":"88460298","location":"西工大附中高中部行政楼"},{"name":"教务处","job":"教务、教学、考务","telephone":"88460471","location":"西工大附中高中部行政楼"},{"name":"团委","job":"团工作日常管理","telephone":"88460285","location":"西工大附中初中部2号楼1楼"},{"name":"办公室","job":"出具证明、审核盖章","telephone":"88460470","location":"西工大附中初中部2号楼1楼"}],"name":"基础教育中心（附中）"},{"department":[{"name":"财会室","job":"财务管理","telephone":"88494340","location":"幼儿园"},{"name":"基础教育中心（幼儿园）-财会室","job":"财务管理","telephone":"88494340","location":"幼儿园幼儿园南一楼"},{"name":"基础教育中心（幼儿园）-办公室","job":"园务协调、园务接待、印信管理","telephone":"88493741","location":"幼儿园幼儿园南一楼"},{"name":"卫生室","job":"卫生保健及幼儿膳食管理","telephone":"88494275","location":"幼儿园"},{"name":"办公室2","job":"招生工作","telephone":"88493741","location":"幼儿园"},{"name":"传达室","job":"门卫安全","telephone":"88493891","location":"幼儿园"},{"name":"基础教育中心（幼儿园）-传达室","job":"门卫安全","telephone":"88493891","location":"幼儿园幼儿园南一楼"},{"name":"办公室1","job":"园务协调、园务接待、印信管理","telephone":"88493741","location":"幼儿园"},{"name":"基础教育中心（幼儿园）-卫生室","job":"卫生保健及幼儿膳食管理","telephone":"88494275","location":"幼儿园幼儿园南一楼"},{"name":"基础教育中心（幼儿园）-办公室","job":"招生工作","telephone":"88494713","location":"幼儿园幼儿园南一楼"},{"name":"保教办公室","job":"教学管理","telephone":"88494714","location":"幼儿园"},{"name":"基础教育中心（幼儿园）-保教办公室","job":"教学管理","telephone":"88494714","location":"幼儿园幼儿园北三楼"}],"name":"基础教育中心（幼儿园）"},{"department":[{"name":"办公室（友）","job":"综合协调、督办","telephone":"88492033","location":"基建处院内"},{"name":"办公室（长）","job":"综合协调、督办","telephone":"88430662","location":"综合楼"},{"name":"合同管理科1","job":"合同管理、限额内工程采购","telephone":"88495805","location":"基建处院内"},{"name":"合同管理科3","job":"合同管理、限额内工程采购","telephone":"88430646","location":"综合楼"},{"name":"合同管理科2","job":"合同管理、限额内工程采购","telephone":"88495893","location":"基建处院内"},{"name":"合同管理科4","job":"合同管理、限额内工程采购","telephone":"88430641-209","location":"综合楼"},{"name":"友谊校区工程管理科2","job":"友谊校区基本建设项目施工管理","telephone":"88460576","location":"基建处院内"},{"name":"长安校区工程管理科2","job":"长安校区基本建设项目施工管理","telephone":"88430660-206","location":"综合楼"},{"name":"友谊校区工程管理科1","job":"友谊校区基本建设项目施工管理","telephone":"88495998","location":"基建处院内"},{"name":"长安校区工程管理科4","job":"长安校区基本建设项目施工管理","telephone":"88430643","location":"综合楼"},{"name":"友谊校区工程管理科3","job":"友谊校区基本建设项目施工管理","telephone":"88465129","location":"基建处院内"},{"name":"长安校区工程管理科1","job":"长安校区基本建设项目施工管理","telephone":"88430660-205","location":"综合楼"},{"name":"长安校区工程管理科3","job":"长安校区基本建设项目施工管理","telephone":"88430660-207","location":"综合楼"},{"name":"造价管理科1（友）","job":"工程预算、付款","telephone":"88492488","location":"基建处院内"},{"name":"长安校区工程管理科5","job":"长安校区基本建设项目施工管理","telephone":"88430644","location":"综合楼"},{"name":"造价管理科2（友）","job":"工程预算、付款","telephone":"88460578","location":"基建处院内"},{"name":"前期综合科2（友）","job":"建设项目初步设计，报建、报验","telephone":"88460577","location":"基建处院内"},{"name":"造价管理科2（长）","job":"工程预算、付款","telephone":"88430641-211","location":"综合楼"},{"name":"造价管理科1（长）","job":"工程预算、付款","telephone":"88430645","location":"综合楼"},{"name":"维修管理科1（友）","job":"维修项目施工管理","telephone":"88495252","location":"基建处院内"},{"name":"前期综合科（长）","job":"建设项目初步设计，报建、报验","telephone":"88430611","location":"综合楼"},{"name":"维修管理科2（友）","job":"维修项目施工管理","telephone":"88495313","location":"基建处院内"},{"name":"维修管理科（长）","job":"维修项目施工管理","telephone":"88430660-204","location":"综合楼"},{"name":"前期综合科1（友）","job":"建设项目初步设计，报建、报验","telephone":"88493630","location":"基建处院内"}],"name":"基建处"},{"department":[{"name":"基建处 -报建科 （长）","job":"项目前期报建 ","telephone":"88430640","location":"友谊校区、长安校区219（长） "},{"name":"基建处 -技术规划科 （长）","job":"技术方案、施工图设计、技术服务 ","telephone":"88430640-217 ","location":"友谊校区、长安校区215、217"},{"name":"基建处 -办公室 （长）","job":"综合协调、督办 ","telephone":"88430660-221","location":"友谊校区、长安校区221（长） "},{"name":"基建处 -技术规划科 （友）","job":"技术方案、施工图设计、技术服务 ","telephone":"88493630","location":"友谊校区、长安校区106（友） "},{"name":"基建处 -办公室 （友）","job":"综合协调、督办 ","telephone":"88492033","location":"友谊校区、长安校区204（友） "},{"name":"基建处 -维修科 （长）","job":"维修项目管理 ","telephone":"88430660","location":"友谊校区、长安校区204（长） "},{"name":"基建处 -工程管理科 （友）","job":"友谊校区、长安校区基本建设项目施工管理 ","telephone":"88495998","location":"友谊校区、长安校区101、103"},{"name":"基建处 -维修科 （友）","job":"维修项目管理 ","telephone":"88495252","location":"友谊校区、长安校区基建处一楼（友） "},{"name":"基建处 -工程管理科（长） ","job":"友谊校区、长安校区基本建设项目施工管理 ","telephone":"88430660-205","location":"友谊校区、长安校区205、206、207"},{"name":"基建处 -工程管理科（长） ","job":"友谊校区、长安校区基本建设项目施工管理 ","telephone":"88430660-206 ","location":"友谊校区、长安校区205、206、207"},{"name":"基建处 -工程管理科（长） ","job":"友谊校区、长安校区基本建设项目施工管理 ","telephone":"88430660-207 ","location":"友谊校区、长安校区205、206、207"},{"name":"基建处 -计划合同科（友） ","job":"合同管理、工程结算 ","telephone":"88495805","location":"友谊校区、长安校区基建处一"},{"name":"基建处 -计划合同科（长） ","job":"合同管理、工程结算 ","telephone":"88430641-211","location":"友谊校区、长安校区209、211"},{"name":"基建处 -计划合同科（长） ","job":"合同管理、工程结算 ","telephone":"88430641-209 ","location":"友谊校区、长安校区楼（友） "},{"name":"基建处 -技术规划科 （长）","job":"技术方案、施工图设计、技术服务 ","telephone":"88430640-215 ","location":"友谊校区、长安校区215、217"},{"name":"基建处 -报建科 （友）","job":"项目前期报建 ","telephone":"88495893","location":"友谊校区、长安校区基建处一楼（友） "}],"name":"基建处 "},{"department":[{"name":"机电学院（五院）","job":"","telephone":" 本科生教学管理工作","location":"航空楼B座 4楼425"},{"name":"机电学院（五院）","job":"","telephone":"本科生教学管理工作","location":"航空楼B座 4楼"}],"name":"88491445"},{"department":[{"name":"机电学院（五院）-研究生管理办","job":"研究生思想政治教育管理工作","telephone":"88492994","location":"航空楼B座 4楼423"},{"name":"机电学院（五院）-本科生管理办","job":"本科生思想政治教育管理工作","telephone":"88492842","location":"航空楼B座 4楼429"},{"name":"机电学院（五院）-学院办公室","job":"人事管理工作","telephone":"88460490","location":"航空楼B座 4楼413"},{"name":"机电学院（五院）-研究生教学办","job":"研究生教学管理、国际化工作","telephone":"88492470","location":"航空楼B座 4楼421"},{"name":"本科生管理办","job":"本科生思想政治教育管理工作","telephone":"88492842","location":"航空楼B座 4楼"},{"name":"国际化教学办","job":"国际化工作","telephone":"88494382","location":"航空楼B座 4楼"},{"name":"研究生教学办","job":"研究生教学管理、国际化工作","telephone":"88492470","location":"航空楼B座 4楼"},{"name":"学院办公室","job":"人事管理工作","telephone":"88460490","location":"航空楼B座 4楼"},{"name":"学院办公室","job":"科研管理、保密工作","telephone":"88492531","location":"航空楼B座 4楼"},{"name":"研究生管理办","job":"研究生思想政治教育管理工作","telephone":"88492994","location":"航空楼B座 4楼"}],"name":"机电学院（五院）"},{"department":[{"name":"机电学院（五院）","job":"","telephone":"科研管理、保密工作","location":"航空楼B座 4楼419"}],"name":"88492531"},{"department":[{"name":"机电学院（五院）","job":"","telephone":"行政、组织管理工作","location":"航空楼B座 4楼413"},{"name":"机电学院（五院）","job":"","telephone":"行政、组织管理工作","location":"航空楼B座 4楼"}],"name":"88495297"},{"department":[{"name":"辅导员办","job":"本科生管理","telephone":"88430166","location":"长安校区计算机学院1、3楼"},{"name":"教导员办","job":"研究生管理","telephone":"88430172","location":"长安校区计算机学院1、3楼"},{"name":"科研办","job":"科研保密","telephone":"88431520","location":"长安校区计算机学院1、3楼"},{"name":"党务，人事办","job":"党务，人事","telephone":"88431519","location":"长安校区计算机学院1、3楼"},{"name":"计算机学院-党务，人事办","job":"党务，人事","telephone":"88431519","location":"长安校区计算机学院1、3楼323"},{"name":"研究生教学办","job":"研究生教学","telephone":"88431522","location":"长安校区计算机学院1、3楼"},{"name":"计算机学院-本科生教学办","job":"本科生教学","telephone":"88431521","location":"长安校区计算机学院1、3楼331"},{"name":"学院办公室","job":"办公室行政","telephone":"88431510","location":"长安校区计算机学院1、3楼"},{"name":"本科生教学办","job":"本科生教学","telephone":"88431521","location":"长安校区计算机学院1、3楼"},{"name":"值班室","job":"学院楼值班","telephone":"88431540","location":"长安校区计算机学院1、3楼"},{"name":"复印室","job":"复印与传真","telephone":"88431517","location":"长安校区计算机学院1、3楼"},{"name":"计算机学院-学院办公室","job":"办公室行政","telephone":"88431518","location":"长安校区计算机学院1、3楼319"},{"name":"计算机学院-值班室","job":"学院楼值班","telephone":"88431540","location":"长安校区计算机学院1、3楼345"},{"name":"计算机学院-辅导员办","job":"本科生管理","telephone":"88430166","location":"长安校区计算机学院1、3楼146"},{"name":"计算机学院-辅导员办","job":"本科生管理","telephone":"88430236","location":"长安校区计算机学院1、3楼148"},{"name":"辅导员办","job":"本科生管理","telephone":"88430236","location":"长安校区计算机学院1、3楼"},{"name":"计算机学院-研究生教学办","job":"研究生教学","telephone":"88431522","location":"长安校区计算机学院1、3楼335"},{"name":"计算机学院-复印室","job":"复印与传真","telephone":"88431517","location":"长安校区计算机学院1、3楼307"},{"name":"计算机学院-教导员办","job":"研究生管理","telephone":"88430172","location":"长安校区计算机学院1、3楼138"},{"name":"计算机学院-科研办","job":"科研保密","telephone":"88431520","location":"长安校区计算机学院1、3楼327"}],"name":"计算机学院"},{"department":[{"name":"办公室","job":"机关党建工作（党员发展审批、组织关系接转、党费收缴）；机关思想政治工作；机关作风建设；机关部门工会工作","telephone":"88495920","location":"学校办公楼A座1楼"},{"name":"机关党委-办公室","job":"机关党建工作（党员发展审批、组织关系接转、党费收缴）；机关思想政治工作； 机关作风建设；机关部门 工会工作","telephone":"88495920","location":"教学中楼3楼316"}],"name":"机关党委"},{"department":[{"name":"继续教育学院、网络教育学院-直属学习中心","job":"西安地区学生报名、管理等","telephone":"88460719","location":"西苑办公楼404"},{"name":"继续教育学院、网络教育学院-评估与发展 研究中心","job":"评估管理等","telephone":"88460523","location":"西苑办公楼210"},{"name":"继续教育学院、网络教育学院-直属学习中心","job":"西安地区学生报名、管理等","telephone":"88495096","location":"西苑办公楼404"},{"name":"继续教育学院、网络教育学院-信息技术部","job":"技术支持服务","telephone":"88495471","location":"西苑办公楼402"},{"name":"继续教育学院、网络教育学院-教务部","job":"教务教学管理等","telephone":"88460284","location":"西苑办公楼420"},{"name":"继续教育学院、网络教育学院-国际合作部","job":"出国留学服务等","telephone":"88494524","location":"西苑办公楼409"},{"name":"继续教育学院、网络教育学院-招生办","job":"报名咨询、合作办学等","telephone":"88492321","location":"西苑办公楼218"},{"name":"继续教育学院、网络教育学院-教务部","job":"教务教学管理等","telephone":"88460442","location":"西苑办公楼420"},{"name":"继续教育学院、网络教育学院-资产管理中心","job":"学费缴纳，账务报销","telephone":"88460535","location":"西苑办公楼206"},{"name":"继续教育学院、网络教育学院-资源建设中心","job":"教学资源建设","telephone":"88460237","location":"西苑办公楼412"},{"name":"继续教育学院、网络教育学院-招生办","job":"报名咨询、合作办学等","telephone":"88494517","location":"西苑办公楼218"},{"name":"继续教育学院、网络教育学院-继续教育部","job":"非学历教育培训","telephone":"88493102","location":"西苑办公楼208"},{"name":"继续教育学院、网络教育学院-学院办公室","job":"行政与综合管理、档案查询","telephone":"88460200","location":"西苑办公楼303"},{"name":"继续教育学院、网络教育学院-学院办公室","job":"行政与综合管理、档案查询","telephone":"88493731","location":"西苑办公楼303"},{"name":"技术资源中心2","job":"教学资源建设、技术支持服务","telephone":"88495471","location":"西苑办公楼"},{"name":"国际合作部","job":"出国留学服务等","telephone":"88494524","location":"西苑办公楼"},{"name":"技术资源中心1","job":"教学资源建设、技术支持服务","telephone":"88460237","location":"西苑办公楼"},{"name":"学院办公室2","job":"行政与综合管理、档案查询、学费收缴","telephone":"88460200","location":"西苑办公楼"},{"name":"直属学习中心2","job":"西安地区学生报名、管理等","telephone":"88460719","location":"西苑办公楼"},{"name":"评估与发展研究中心","job":"评估管理等","telephone":"88460523","location":"西苑办公楼"},{"name":"学院办公室1","job":"行政与综合管理、档案查询、学费收缴","telephone":"88493731","location":"西苑办公楼"},{"name":"学院办公室3","job":"行政与综合管理、档案查询、学费收缴","telephone":"88460535","location":"西苑办公楼"},{"name":"培训中心2","job":"非学历教育培训","telephone":"88493142","location":"西苑办公楼"},{"name":"教务部2","job":"教务教学管理等","telephone":"88460442","location":"西苑办公楼"},{"name":"招生办1","job":"报名咨询、合作办学等","telephone":"88494517","location":"西苑办公楼"},{"name":"招生办2","job":"报名咨询、合作办学等","telephone":"88492321","location":"西苑办公楼"},{"name":"教务部1","job":"教务教学管理等","telephone":"88460284","location":"西苑办公楼"},{"name":"培训中心1","job":"非学历教育培训","telephone":"88493102","location":"西苑办公楼"},{"name":"直属学习中心1","job":"西安地区学生报名、管理等","telephone":"88495096","location":"西苑办公楼"}],"name":"继续教育学院、网络教育学院"},{"department":[{"name":"综合质量办公室","job":"协调、接待、教学质量监控","telephone":"88430582","location":"启真楼3楼"},{"name":"教学规划与管理办公室","job":"专业建设、培养方案、课程管理与建设、教改规划与立项、教学成果培养与评审、教指委、教学委员会秘书工作","telephone":"88430587","location":"启真楼3楼"},{"name":"教师教学发展中心","job":"教学培训与研究、教学咨询与服务、教师管理","telephone":"88493056","location":"友谊校区 研究生东馆3楼  老图书馆2楼"},{"name":"学生注册中心","job":"学生学业指导（长）","telephone":"88430588","location":"学生注册大厅学业指导室长安校区教学东楼D座"},{"name":"学生注册中心","job":"学生学业指导（友）","telephone":"88430588","location":"友谊校区诚字楼"},{"name":"教学办公室","job":"学生证、成绩、学籍及学历管理；转学、转专业管理；免试研究生推荐","telephone":"88430583","location":"启真楼3楼"},{"name":"学生注册中心","job":"教学运行管理","telephone":"88430585","location":"长安校区 启真楼3楼"},{"name":"教学办公室","job":"学生证、成绩、学籍及学历管理；转学、转专业管理；免试研究生推荐","telephone":"88430584","location":"启真楼3楼"},{"name":"招生办公室","job":"本科生招生业务","telephone":"88492310","location":"友谊校区 研究生东馆3楼"},{"name":"实践教学办公室","job":"本科实习、创新实践、学科竞赛、实验室管理、毕业设计","telephone":"88430589","location":"启真楼3楼"},{"name":"教师教学发展中心","job":"教学培训与研究、教学咨询与服务、教师管理","telephone":"88460737","location":"友谊校区 研究生东馆3楼  老图书馆2楼"},{"name":"教师教学发展中心","job":"教学培训与研究、教学咨询与服务、教师管理","telephone":"88494152","location":"友谊校区 研究生东馆3楼  老图书馆2楼"},{"name":"综合质量办公室","job":"协调、接待、教学质量监控","telephone":"88430586","location":"启真楼3楼"}],"name":"教务处"},{"department":[{"name":"办公室","job":"办公室日常业务","telephone":"88493708","location":"学校办公楼A座3楼"},{"name":"纪委办公室（监察处）-办公室","job":"办公室日常业务","telephone":"88493708","location":"教学中楼3楼305"}],"name":"纪委办公室（监察处）"},{"department":[{"name":"教务处 -招生办公室 ","job":"本科生招生业务 ","telephone":"88492310","location":"教学东楼 1、2楼、研究生东馆 3楼研究生东馆321"},{"name":"教务处 -交流实践科 ","job":"本科交流选拔、本科实习、创新实践、学科竞赛 ","telephone":"88495945","location":"教学东楼 1、2楼、研究生东馆 3楼103、105 "},{"name":"教务处 -交流实践科 ","job":"本科交流选拔、本科实习、创新实践、学科竞赛 ","telephone":"88492133","location":"教学东楼 1、2楼、研究生东馆 3楼103、105 "},{"name":"教务处 -教学质量科 ","job":"教学质量监控 ","telephone":"88494152","location":"教学东楼 1、2楼、研究生东馆 3楼104"},{"name":"教务处 -教研教材科 ","job":"培养方案、专业建设、课程建设、教材建设、教改立项、教学成果、教学名师、教学团队、教指委、专业认证、专业综合改革、教学与考核模式改革、奖教金 ","telephone":"88493513","location":"教学东楼 1、2楼、研究生东馆 3楼101"},{"name":"教务处 -教研教材科 ","job":"培养方案、专业建设、课程建设、教材建设、教改立项、教学成果、教学名师、教学团队、教指委、专业认证、专业综合改革、教学与考核模式改革、奖教金 ","telephone":"88494020","location":"教学东楼 1、2楼、研究生东馆 3楼202"},{"name":"教务处 -教务管理科 ","job":"教学运行管理 ","telephone":"88494151","location":"教学东楼 1、2楼、研究生东馆 3楼112"},{"name":"教务处 -教务管理科 ","job":"教学运行管理 ","telephone":"88493340","location":"教学东楼 1、2楼、研究生东馆 3楼112"},{"name":"教务处 -学籍管理科 ","job":"学生证、成绩、学籍及学历管理；转学、转专业管理；免试研究生推荐； ","telephone":"88493512","location":"教学东楼 1、2楼、研究生东馆 3楼106、108 "},{"name":"教务处 -实验教学科 ","job":"实验室日常运行管理 ","telephone":"88493056","location":"教学东楼 1、2楼、研究生东馆 3楼102"},{"name":"教务处 -综合科 （长）","job":"协调、接待 ","telephone":"88430019","location":"教学东楼 1、2楼、研究生东馆 3楼204 数字化楼第二办公大厅"},{"name":"教务处 -综合科 ","job":"协调、接待 ","telephone":"88493511","location":"教学东楼 1、2楼、研究生东馆 3楼104"}],"name":"教务处 "},{"department":[{"name":"教育实验学院-学生办公室","job":"学院学生工作","telephone":"88494329","location":"友谊校区老图书馆老图书馆410（友）"},{"name":"教育实验学院-学生办公室","job":"学院学生工作","telephone":"88430282","location":"长安校区教学西楼C座南1楼教学西楼C座南一层1011（长）"},{"name":"教育实验学院-教学办公室","job":"学院教学工作","telephone":"88494329","location":"友谊校区老图书馆老图书馆410（友）"},{"name":"教育实验学院-教学办公室","job":"学院教学工作","telephone":"88430277","location":"长安校区教学西楼C座南1楼教学西楼C座南一层102（长）"},{"name":"学生办公室","job":"学院学生工作","telephone":"88494329","location":"友谊校区老图书馆"},{"name":"教学办公室","job":"学院教学工作","telephone":"88494329","location":"友谊校区老图书馆"},{"name":"教育实验学院-学院办公室","job":"学院行政工作","telephone":"88494329","location":"友谊校区老图书馆老图书馆410（友）"},{"name":"学生办公室","job":"学院学生工作","telephone":"88430282","location":"长安校区教学西楼C座南1楼"},{"name":"教学办公室","job":"学院教学工作","telephone":"88430278","location":"长安校区教学西楼C座南1楼"},{"name":"教学办公室","job":"学院教学工作","telephone":"88430277","location":"长安校区教学西楼C座南1楼"},{"name":"学院办公室","job":"学院行政工作","telephone":"88494329","location":"友谊校区老图书馆"},{"name":"学院办公室","job":"学院行政工作","telephone":"88430283","location":"长安校区教学西楼C座南1楼"},{"name":"教育实验学院-学院办公室","job":"学院行政工作","telephone":"88430278","location":"长安校区教学西楼C座南1楼教学西楼C座南一层102（长）"}],"name":"教育实验学院"},{"department":[{"name":"选培办4","job":"国防生选拔、军事训练、日常管理","telephone":"88460853","location":"友谊校区 学生宿舍4号楼（即国防生楼）"},{"name":"选培办3","job":"内勤","telephone":"88460865","location":"友谊校区 学生宿舍4号楼（即国防生楼）"},{"name":"解放军驻西工大选培办-选培办","job":"国防生招收、选拔，军事训练","telephone":"88494990","location":"学生宿舍 4 号楼（即国防生楼）127"},{"name":"选培办1","job":"国防生培养总体工作、国防生军政理论课、国防生报","telephone":"88494989","location":"友谊校区 学生宿舍4号楼（即国防生楼）"},{"name":"选培办2","job":"国防奖学金的发放及日常管理","telephone":"88494990","location":"友谊校区 学生宿舍4号楼（即国防生楼）"},{"name":"解放军驻西工大选培办-选培办","job":"内勤","telephone":"88494990","location":"学生宿舍 4 号楼（即国防生楼）121"},{"name":"解放军驻西工大选培办-选培办","job":"国防生培养总体工作","telephone":"88494989","location":"学生宿舍 4 号楼（即国防生楼）123"},{"name":"解放军驻西工大选培办-选培办","job":"国防生军政理论课、国防生报","telephone":"88494990","location":"学生宿舍 4 号楼（即国防生楼）125"},{"name":"解放军驻西工大选培办-选培办","job":"国防奖学金的发放、淘汰、违约","telephone":"88494990","location":"学生宿舍 4 号楼（即国防生楼）119"}],"name":"解放军驻西工大选培办"},{"department":[{"name":"科学技术管理部（科管部） -2011协同中心办","job":"协助完成 2011 计划组织工作","telephone":"88460629","location":"教学东楼 3楼、勇字楼 10楼教学东楼319"},{"name":"科学技术管理部（科管部） -产学研合作办","job":"省市计划项目、产学研合作、技术转移与成果转化，合同认定退税、技术转移","telephone":"88492232","location":"教学东楼 3楼、勇字楼 10楼教学东楼 319"},{"name":"科学技术管理部（科管部） -国防基础办","job":"国家部委类国防科研项目及有关国家专项过程管理、国家部委国防科研项目和航天集团基金日常管理","telephone":"88492339","location":"教学东楼 3楼、勇字楼 10楼教学东楼 308"},{"name":"科学技术管理部（科管部）-重大项目办","job":"学校认定的重大项目全过程管理，型号项目管理，全校配套科研管理项目和重大专项过程管理","telephone":"88494126","location":"教学东楼 3楼、勇字楼 10楼教学东楼304"},{"name":"科学技术管理部（科管部） -高新技术办","job":"民口国家计划项目的组织及全过程管理","telephone":"88495527","location":"教学东楼 3楼、勇字楼 10楼教学东楼 329"}],"name":"科学技术管理部 （科管部）"},{"department":[{"name":"产学研合（协同创新）办公室","job":"省市计划项目、产学研合作、技术转移与成果转化；合同认定退税、技术转移;“协同创新中心”的培育组建、批准认定和总体管理","telephone":"88492232","location":"友谊校区 学校办公楼B座3楼"},{"name":"成果奖励办公室","job":"国家科技奖组织和申报；各类科技成果鉴定、登记；奖金证书的核定与发放工作","telephone":"88460723","location":"友谊校区 学校办公楼B座3楼"},{"name":"知识产权办公室","job":"知识产权的鉴定、申请、登记、注册、评估和管理；管理知识产权专项经费，组织申报专利奖等","telephone":"88492338","location":"友谊校区 学校办公楼B座3楼"},{"name":"高新办公室","job":"民口国家计划项目的组织及全过程管理","telephone":"88495527","location":"友谊校区 学校办公楼B座3楼"}],"name":"科学技术管理部（高新技术处）"},{"department":[{"name":"国际科技合作办公室","job":"国际科技合作项目受理和管理","telephone":"88495935","location":"友谊校区 学校办公楼B座3楼"},{"name":"基础研究办公室","job":"科技类基金受理和过程管理","telephone":"88493027","location":"友谊校区 学校办公楼B座3楼"},{"name":"人文社科办公室基本科研业务费管理办公室","job":"人文社科类基金受理和过程管理、基本科研业务费办公室具体工作","telephone":"88460720","location":"友谊校区 学校办公楼B座3楼"}],"name":"科学技术管理部（基础研究与文科处）"},{"department":[{"name":"装备创新办公室","job":"ZZ及各JBZ军工科研项目的策划争取和管理","telephone":"88494118","location":"友谊校区 学校办公楼B座3楼"},{"name":"装备创新办公室","job":"863计划、航空基金等项目的全过程管理","telephone":"88494160","location":"友谊校区 学校办公楼B座3楼"},{"name":"国防基础办公室","job":"国家部委类国防科研项目及有关国家专项过程管理","telephone":"88492339","location":"友谊校区 学校办公楼B座3楼"},{"name":"国防基础办公室","job":"国家部委国防科研项目和航天集团基金日常管理","telephone":"88491661","location":"友谊校区 学校办公楼B座3楼"},{"name":"重大项目办公室","job":"学校认定的重大项目全过程管理、型号项目管理、全校配套科研管理项目和重大专项过程管理","telephone":"88494126","location":"友谊校区 学校办公楼B座3楼"}],"name":"科学技术管理部（军工科研处）"},{"department":[{"name":"科学技术管理部（科管部） -基础研究办","job":"科技类基金受理和过程管理","telephone":"88493027","location":"教学东楼 3楼、勇字楼 10楼教学东楼"},{"name":"科学技术管理部（科管部） -装备科研办","job":"ZZ及各 JBZ军工科研项目的策划争取和管理； 863计划、航空基金等项目的全过程管理","telephone":"88494118","location":"教学东楼 3楼、勇字楼 10楼教学东楼306"},{"name":"科学技术管理部（科管部） -人文社科办","job":"人文社科类基金受理和过程管理","telephone":"88460720","location":"教学东楼 3楼、勇字楼 10楼317"},{"name":"科学技术管理部（科管部） -国际科技合作办","job":"国际科技合作项目受理和管理","telephone":"88460720","location":"教学东楼 3楼、勇字楼 10楼317"},{"name":"科学技术管理部（科管部） -科研平台办","job":"科研平台办各项工作，各级重点实验室和各类工程中心的建设管理，大型仪器设备开放共享管理工作","telephone":"88492142","location":"教学东楼 3楼、勇字楼 10楼教学东楼307"},{"name":"科学技术管理部（科管部） -知识产权办","job":"知识产权的鉴定、申请、登记、注册、评估和管理，管理知识产权专项经费，组织申报专利奖等","telephone":"88492338","location":"教学东楼 3楼、勇字楼 10楼教学东楼327"},{"name":"科学技术管理部（科管部） -条件保障办","job":"条件保障办各项工作，建项目的过程管理、协助条保项目规划与争取","telephone":"88494128","location":"教学东楼 3楼、勇字楼 10楼教学东楼305"},{"name":"科学技术管理部（科管部） -学术交流办","job":"学术交流、学会的组织及日常管理、科协的相关联络管理、科协系统奖项的推荐与申报","telephone":"88460631","location":"教学东楼 3楼、勇字楼 10楼勇字楼 10 楼1008"},{"name":"科学技术管理部（科管部） -质量管理办公室","job":"质量体系相关工作，检验管理，科研计量管理","telephone":"88494125","location":"教学东楼 3楼、勇字楼 10楼教学东楼303"},{"name":"科学技术管理部（科管部） -成果管理办","job":"国家科技奖组织和申报、各类科技成果鉴定、登记，奖金证书的核定与发放工作","telephone":"88491614","location":"教学东楼 3楼、勇字楼 10楼教学东楼327"},{"name":"科学技术管理部（科管部） -部办公室","job":"项目添加、合同用印、合同免税认定登记、文件收发、代签合同集中处理、查询经费编号、项目结题结算、科技统计等，文件复印","telephone":"88460721","location":"教学东楼 3楼、勇字楼 10楼教学东楼323、324"}],"name":"科学技术管理部（科管部）"},{"department":[{"name":"科研平台办公室","job":"科研平台办各项工作；各级重点实验室和各类工程中心的建设管理","telephone":"88492142","location":"友谊校区 学校办公楼B座3楼"},{"name":"条件保障办公室","job":"条件保障办各项工作；建项目的过程管理、协助条保项目规划与争取","telephone":"88494128","location":"友谊校区 学校办公楼B座3楼"},{"name":"质量、检验、军工资质、科研计量管理办公室","job":"学校“武器装备科研生产许可”和“装备承制单位资格”相关工作的组织策划与实施","telephone":"88460401","location":"友谊校区 学校办公楼B座3楼"},{"name":"科研平台办公室","job":"大型仪器设备开放共享管理工作","telephone":"88460561","location":"友谊校区 学校办公楼B座3楼"},{"name":"质量、检验、军工资质、科研计量管理办公室","job":"学校武器装备质量管理体系相关工作的组织策划与实施","telephone":"88494125","location":"友谊校区 学校办公楼B座3楼"}],"name":"科学技术管理部（科研保障处）"},{"department":[{"name":"部办公室","job":"部工作计划、总结、人事管理、大型会议组织策划，信息化工作，部保密工作等","telephone":"88460721","location":"友谊校区 学校办公楼B座3楼"},{"name":"合同办公室信息化办公室1","job":"审批/签订学校科研技术合同、科研外协合同、科技合作协议，审批科技计划任务书等，工会、支部建设等","telephone":"88460629","location":"友谊校区 学校办公楼B座3楼"},{"name":"合同办公室信息化办公室2","job":"项目添加、合同用印、代签合同集中处理、查询经费编号、项目结题结算、科技统计等","telephone":"88494377","location":"友谊校区 学校办公楼B座3楼"},{"name":"部办公室","job":"合同免税认定登记、文件收发、文件复印，行政用印管理，校内职能部门对接等","telephone":"88491614","location":"友谊校区 学校办公楼B座3楼"},{"name":"学术交流办公室","job":"学术交流、学会的组织及日常管理、科协的相关联络管理、科协系统奖项的推荐与申报","telephone":"88460631","location":"友谊校区 勇字楼10楼"}],"name":"科学技术管理部（科研综合管理中心）"},{"department":[{"name":"办公室","job":"党务、行政事务协调及信访接待","telephone":"88495442","location":"健翔楼2楼"},{"name":"老干科","job":"老干部管理","telephone":"88492249","location":"健翔楼2楼"},{"name":"退休科","job":"退休人员管理","telephone":"88493260","location":"健翔楼2楼"},{"name":"老年大学","job":"老年大学管理","telephone":"88494403","location":"健翔楼2楼"},{"name":"社团中心","job":"红枫叶社团管理","telephone":"88491312","location":"健翔楼2楼"}],"name":"离退休党委"},{"department":[{"name":"离退休党委（离退休工作处）-社团中心","job":"红枫叶社团管理","telephone":"88493260","location":"健翔楼2楼健翔楼2楼"},{"name":"离退休党委（离退休工作处）-退休科","job":"退休人员管理","telephone":"88493260","location":"健翔楼2楼健翔楼2楼"},{"name":"离退休党委（离退休工作处）-办公室","job":"党务、行政事务协调及信访接待","telephone":"88495442","location":"健翔楼2楼健翔楼2楼"},{"name":"离退休党委（离退休工作处）-老年大学","job":"老年大学管理","telephone":"88493260","location":"健翔楼2楼健翔楼2楼"},{"name":"离退休党委（离退休工作处）-老干科","job":"老干部管理","telephone":"88492249","location":"健翔楼2楼健翔楼2楼"}],"name":"离退休党委（离退休工作处）"},{"department":[{"name":"学院办公室","job":"科研、保密","telephone":"88431657","location":"长安校区理学院楼"},{"name":"应用数学系办","job":"","telephone":"88431660","location":"长安校区理学院楼"},{"name":"大学物理实验中心","job":"","telephone":"88430249","location":"长安校区理学院楼"},{"name":"普通化学实验中心","job":"","telephone":"88430250","location":"长安校区理学院楼"},{"name":"理学院-学院办公室","job":"人事、党务","telephone":"88431656","location":"长安校区理学院楼D375"},{"name":"理学院-应用数学系办","job":"","telephone":"88431660","location":"长安校区理学院楼数学A322"},{"name":"理学院-本科生办","job":"本科生教学管理","telephone":"88431658","location":"长安校区理学院楼D363"},{"name":"理学院-科研办","job":"科研、保密","telephone":"88431657","location":"长安校区理学院楼D371"},{"name":"理学院-研究生办","job":"研究生教学管理","telephone":"88431654","location":"长安校区理学院楼D367"},{"name":"理学院-辅导员办","job":"学生日常管理","telephone":"88431659","location":"长安校区理学院楼C394"},{"name":"理学院-应用物理系办","job":"","telephone":"88431664","location":"长安校区理学院楼物理D321"},{"name":"理学院-应用数学系机房","job":"","telephone":"88431661","location":"长安校区理学院楼数学A407"},{"name":"理学院-应用化学系办","job":"","telephone":"88431672","location":"长安校区理学院楼化学B374"},{"name":"辅导员办","job":"学生日常管理","telephone":"88431659","location":"长安校区理学院楼"},{"name":"理学院-大学物理实验中心","job":"","telephone":"88430249","location":"长安校区理学院楼实验大楼C403"},{"name":"学院办公室","job":"人事、党务","telephone":"88431656","location":"长安校区理学院楼"},{"name":"理学院-普通化学实验中心","job":"","telephone":"88430250","location":"长安校区理学院楼实验大楼A403"},{"name":"学院办公室","job":"本科生教学管理","telephone":"88431658","location":"长安校区理学院楼"},{"name":"学院办公室","job":"研究生教学管理","telephone":"88431654","location":"长安校区理学院楼"},{"name":"学院办公室","job":"物理系、化学系秘书","telephone":"88431664","location":"长安校区理学院楼"},{"name":"应用数学系机房","job":"","telephone":"88431661","location":"长安校区理学院楼"}],"name":"理学院"},{"department":[{"name":"本科生教学办","job":"本科教学事务","telephone":"88431006","location":"长安校区力学与土木建筑学院楼2楼"},{"name":"学院办公室","job":"行政、党务、人事","telephone":"88431000","location":"长安校区力学与土木建筑学院楼2楼"},{"name":"学生工作办","job":"研究生日常管理","telephone":"88431014","location":"长安校区力学与土木建筑学院楼2楼"},{"name":"力学与土木建筑学院（六院）-教导员","job":"研究生日常管理","telephone":"88431014","location":"长安校区学院楼2楼242"},{"name":"科研工作办","job":"科研管理、安全保密","telephone":"88431008","location":"长安校区力学与土木建筑学院楼2楼"},{"name":"国际合作与交流办","job":"国际化相关工作","telephone":"88431000","location":"长安校区力学与土木建筑学院楼2楼"},{"name":"力学与土木建筑学院（六院）-学院办公室","job":"本科教学事务","telephone":"88431006","location":"长安校区学院楼2楼234"},{"name":"研究生教学办","job":"研究生事务","telephone":"88431008","location":"长安校区力学与土木建筑学院楼2楼"},{"name":"力学与土木建筑学院（六院）-本科生辅导员","job":"学生日常管理","telephone":"88431004","location":"长安校区学院楼2楼242"},{"name":"力学与土木建筑学院（六院）-学院办公室","job":"党政事务","telephone":"88431000","location":"长安校区学院楼2楼226"},{"name":"学生工作办","job":"本科生日常管理","telephone":"88431004","location":"长安校区力学与土木建筑学院楼2楼"},{"name":"力学与土木建筑学院（六院）-研究生教学办","job":"研究生事务","telephone":"88431008","location":"长安校区学院楼2楼234"}],"name":"力学与土木建筑学院（六院）"},{"department":[{"name":"旅游公司-餐饮部","job":"宾馆餐厅订餐","telephone":"88494343","location":"西苑后勤集团正禾宾馆东二楼"},{"name":"旅游公司-销售部","job":"正禾宾馆住宿、餐饮、会议、礼品，前台接待服务","telephone":"88495034","location":"西苑后勤集团正禾宾馆前台正禾宾馆东一楼"},{"name":"旅游公司-销售部（宾馆前台）","job":"正禾宾馆住宿、餐饮、会议、礼品，前台接待服务","telephone":"88491957","location":"西苑后勤集团正禾宾馆前台正禾宾馆东一楼"},{"name":"餐饮部","job":"宾馆餐厅订餐","telephone":"88494343","location":"西苑后勤集团"},{"name":"会议中心2","job":"会议中心的会场预订及相关服务","telephone":"88494360-9208","location":"西苑后勤集团"},{"name":"会议中心1","job":"会议中心的会场预订及相关服务","telephone":"88492426","location":"西苑后勤集团"},{"name":"旅游公司-会议中心","job":"会议中心的会场预订及相关服务","telephone":"88494360-9208","location":"西苑后勤集团国际会议中心正禾宾馆西二楼"},{"name":"销售部（宾馆前台）","job":"正禾宾馆住宿、餐饮、会议、礼品，前台接待服务","telephone":"88491957","location":"西苑后勤集团"},{"name":"办公室","job":"公司日常事务","telephone":"88494363-9306","location":"西苑后勤集团"},{"name":"旅游公司-办公室","job":"公司日常事务","telephone":"88494363-9306","location":"西苑后勤集团正禾宾馆西三楼"},{"name":"旅游公司-会议中心","job":"会议中心的会场预订及相关服务","telephone":"88492426","location":"西苑后勤集团国际会议中心正禾宾馆西二楼"},{"name":"销售部","job":"正禾宾馆住宿、餐饮、会议、礼品，前台接待服务","telephone":"88495034","location":"西苑后勤集团"}],"name":"旅游公司"},{"department":[{"name":"学院办公室","job":"学院党政工作","telephone":"88431906","location":"长安校区人文经法学院2楼"},{"name":"学院办公室","job":"学院党政工作","telephone":"88431900","location":"长安校区人文经法学院2楼"}],"name":"马克思主义学院"},{"department":[{"name":"明德学院-党委工作部","job":"党务工作","telephone":"85603238","location":"西工大沣河校区图书馆 305"},{"name":"后勤工作部","job":"后勤保障、基建工作","telephone":"85603106","location":"西工大沣河校区"},{"name":"人力资源部","job":"人事关系","telephone":"85603129","location":"西工大沣河校区"},{"name":"明德学院-学院办公室","job":"公文审核、督办管理、校务协调、校务接待、印信管理","telephone":"85603158","location":"西工大沣河校区图书馆 208、209、 210"},{"name":"学院办公室","job":"公文审核、督办管理、校务协调、校务接待、印信管理","telephone":"85603158","location":"西工大沣河校区"},{"name":"明德学院-教务科研部","job":"教学管理","telephone":"85603266","location":"西工大沣河校区实训楼 219"},{"name":"图书馆","job":"图书管理、借阅工作","telephone":"85603118","location":"西工大沣河校区"},{"name":"明德学院-招生就业部","job":"招生、就业工作","telephone":"85603066","location":"西工大沣河校区图书馆 314"},{"name":"明德学院-国际合作部","job":"国际合作","telephone":"85603038","location":"西工大沣河校区图书馆 509"},{"name":"明德学院-学生工作部","job":"学生工作","telephone":"85603179","location":"西工大沣河校区图书馆 103"},{"name":"明德学院-人力资源部","job":"人事关系","telephone":"85603129","location":"西工大沣河校区图书馆 405"},{"name":"党委工作部","job":"党务工作","telephone":"85603116","location":"西工大沣河校区"},{"name":"招生及培训部2","job":"招生、就业工作","telephone":"85603222","location":"西工大沣河校区"},{"name":"教务科研部","job":"教学管理","telephone":"85603266","location":"西工大沣河校区"},{"name":"财务资产部","job":"财务工作","telephone":"85603288","location":"西工大沣河校区"},{"name":"学生及保卫部","job":"学生、保卫工作","telephone":"85603179","location":"西工大沣河校区"},{"name":"招生及培训部1","job":"招生、就业工作","telephone":"85603066","location":"西工大沣河校区"}],"name":"明德学院"},{"department":[{"name":"纳米能源材料研究中心","job":"","telephone":"88460204","location":"友谊校区研究生东馆"},{"name":"光学影像分析与学习中心","job":"","telephone":"88495715-8002","location":"友谊校区毅字楼"},{"name":"生态与环境保护研究中心","job":"","telephone":"88460816","location":"友谊校区研究生东馆"},{"name":"计算科学研究中心","job":"","telephone":"/","location":"友谊校区勇字楼"},{"name":"先进润滑与密封材料研究中心","job":"","telephone":"/","location":"友谊校区研究生东馆"},{"name":"大数据交叉科学应用研究中心","job":"","telephone":"/","location":"友谊校区勇字楼"},{"name":"大脑破译研究中心","job":"","telephone":"/","location":"友谊校区研究生东馆"}],"name":"人才特区"},{"department":[{"name":"人事处、高层次人才办公室 -高层次人才办公室 ","job":"高层次人才管理 ","telephone":"88460620","location":"教学中楼3楼     332"},{"name":"人事处、高层次人才办公室 -高层次人才办公室 ","job":"高层次人才管理 ","telephone":"88495803","location":"教学中楼3楼     334"},{"name":"人事处、高层次人才办公室 -劳资办公室（社会保险管理中心） ","job":"医疗保险及社保管理 ","telephone":"88492490","location":"教学中楼3楼     321"},{"name":"人事处、高层次人才办公室 -职工管理及人才交流办公室 ","job":"在职职工、非事业编、人才中心管理 ","telephone":"88492242","location":"教学中楼3楼     331"},{"name":"人事处、高层次人才办公室 -劳资办公室（社会保险管理 中心）","job":"工资、津贴管理 ","telephone":"88492720","location":"教学中楼3楼     324"},{"name":"人事处、高层次人才办公室 -编制调配办公室 ","job":"编制、统计 ","telephone":"88494328","location":"教学中楼3楼     329"},{"name":"人事处、高层次人才办公室 -师资办公室 ","job":"职称及教师日常管理 ","telephone":"88492416","location":"教学中楼3楼     328"},{"name":"人事处、高层次人才办公室 -办公室 ","job":"印章、公文等综合管理 ","telephone":"88460219","location":"教学中楼3楼     330"},{"name":"人事处、高层次人才办公室 -师资办公室 ","job":"博士后、出国管理 ","telephone":"88460733","location":"教学中楼3楼     326"}],"name":"人事处、高层次人才办公室 "},{"department":[{"name":"劳资办公室（社会保险管理中心）","job":"工资、津贴管理","telephone":"88492720","location":"学校办公楼A座3楼"},{"name":"职工管理及人才","job":"在职职工、非事业编、人才中心管理","telephone":"88492242","location":"学校办公楼A座3楼"},{"name":"综合办公室","job":"印章、公文等综合管理","telephone":"88460219","location":"学校办公楼A座3楼"},{"name":"人才特区服务办公室","job":"高层次人才日常服务工作","telephone":"88460799","location":"学校办公楼A座3楼"},{"name":"综合办公室","job":"编制、统计、涉密人员管理","telephone":"88494328","location":"学校办公楼A座3楼"},{"name":"劳资办公室（社会保险管理中心）","job":"医疗保险及社保管理","telephone":"88492490","location":"学校办公楼A座3楼"},{"name":"高层次人才办公室","job":"高层次人才管理","telephone":"88460620","location":"学校办公楼A座3楼"},{"name":"师资办公室","job":"博士后、出国管理","telephone":"88460733","location":"学校办公楼A座3楼"},{"name":"高层次人才办公室","job":"高层次人才管理","telephone":"88495803","location":"学校办公楼A座3楼"},{"name":"交流办公室","job":"职称及教师日常管理","telephone":"88492416","location":"学校办公楼A座3楼"}],"name":"人事处（党委教师工作部、高层次人才办公室）"},{"department":[{"name":"教学办公室","job":"研究生教学工作","telephone":"88431909","location":"长安校区人文与经法学院1楼"},{"name":"学院办公室","job":"党务工作","telephone":"88431912","location":"长安校区人文与经法学院1楼"},{"name":"教学办公室","job":"本科生教学工作","telephone":"88431908","location":"长安校区人文与经法学院1楼"},{"name":"学院办公室","job":"外事、科研工作","telephone":"88431900","location":"长安校区人文与经法学院1楼"},{"name":"人文与经法学院-学院办公室","job":"学院党建、行政工作","telephone":"88431900","location":"长安校区人文与经法学院1楼111"},{"name":"人文与经法学院-学生工作办公室","job":"学院学生工作","telephone":"88431910","location":"长安校区人文与经法学院1楼117"},{"name":"学院办公室","job":"日常行政工作","telephone":"88431900","location":"长安校区人文与经法学院1楼"},{"name":"学生工作办公室","job":"研究生管理工作","telephone":"88431911","location":"长安校区人文与经法学院1楼"},{"name":"学院办公室","job":"管理、人事工作","telephone":"88431907","location":"长安校区人文与经法学院1楼"},{"name":"学生工作办公室","job":"本科生管理工作","telephone":"88431910","location":"长安校区人文与经法学院1楼"},{"name":"人文与经法学院-教学办公室","job":"本科生、研究生教学工作","telephone":"88431909","location":"长安校区人文与经法学院1楼113"}],"name":"人文与经法学院"},{"department":[{"name":"学院值班室","job":"学院值班、会议室保洁以及收发信件","telephone":"88494433-8223","location":"友谊校区毅字楼2楼"},{"name":"教学指导委员会","job":"课堂教学质量把关以及对青年教师的听、评、帮","telephone":"88494433-8215","location":"友谊校区毅字楼2楼"},{"name":"实验教学中心办公室","job":"学院实验教学、各类竞赛、毕业设计、课程设计和认识实践等教学任务","telephone":"88494433-8323","location":"友谊校区毅字楼2楼"},{"name":"学院办公室","job":"人事、财务、资产管理、学院印章、会议室管理信息宣传等","telephone":"88494433-8225","location":"友谊校区毅字楼2楼"},{"name":"科研办","job":"科研管理、保密管理","telephone":"88494433-8217","location":"友谊校区毅字楼2楼"},{"name":"学生管理办","job":"本科生、研究生思想政治教育与管理","telephone":"88494433-8229","location":"友谊校区毅字楼2楼"},{"name":"研究生教学办","job":"研究生教学管理","telephone":"88495953","location":"友谊校区毅字楼2楼"},{"name":"研究生教学办","job":"研究生教学管理","telephone":"88494433-8219","location":"友谊校区毅字楼2楼"},{"name":"学生管理办","job":"本科生、研究生思想政治教育与管理","telephone":"88494538","location":"友谊校区毅字楼2楼"},{"name":"本科生教学办","job":"本科生教学管理","telephone":"88492572","location":"友谊校区毅字楼2楼"},{"name":"本科生教学办","job":"本科生教学管理","telephone":"88494433-8221","location":"友谊校区毅字楼2楼"},{"name":"学院办公室","job":"人事、财务、资产管理、学院印章、会议室管理信息宣传等","telephone":"88460410","location":"友谊校区毅字楼2楼"},{"name":"国际合作办公室","job":"国际合作、校企合作","telephone":"88494433-8227","location":"友谊校区毅字楼2楼"},{"name":"软件与微电子学院-学院值班室","job":"学院值班、会议室保洁以及收发信件","telephone":"88494433-8223","location":"毅字楼2楼223"},{"name":"软件与微电子学院-实验教学中心办公室","job":"学院实验教学、各类竞赛、毕业设计、课程设计和认识实践等教学任务","telephone":"88494433-8327","location":"毅字楼2楼327"},{"name":"软件与微电子学院-教学督导组","job":"课堂教学质量把关以及对青年教师的听、评、帮","telephone":"88494433-8215","location":"毅字楼2楼215"},{"name":"软件与微电子学院-科研办","job":"科研管理、保密管理","telephone":"88494433-8217","location":"毅字楼2楼217"},{"name":"软件与微电子学院-学生管理办","job":"本科生、研究生思想政治教育与管理","telephone":"88494433-8229","location":"毅字楼2楼229"},{"name":"软件与微电子学院-研究生教学办","job":"研究生教学管理","telephone":"88494433-8219","location":"毅字楼2楼219"},{"name":"软件与微电子学院-学院办公室","job":"人事、财务、资产管理、学院印章、会议室管理信息宣传等","telephone":"88494433-8225","location":"毅字楼2楼225"},{"name":"软件与微电子学院-学院办公室","job":"人事、财务、资产管理、学院印章、会议室管理信息宣传等","telephone":"88460410","location":"毅字楼2楼225"},{"name":"软件与微电子学院-学生管理办","job":"本科生、研究生思想政治教育与管理","telephone":"88494538","location":"毅字楼2楼229"},{"name":"软件与微电子学院-本科生教学办","job":"本科生教学管理","telephone":"88494433-8221","location":"毅字楼2楼221"}],"name":"软件与微电子学院"},{"department":[{"name":"外贸与民品部 ","job":"外贸、民品","telephone":"88451000-8106","location":"西安市沣惠南路34号 "},{"name":"公司办公室","job":"办公室综合业务","telephone":"88451020","location":"西安市沣惠南路34号 "},{"name":"财务审计部 ","job":"财务、审计","telephone":"88455760","location":"西安市沣惠南路34号 "},{"name":"科技计划部","job":"科技计划","telephone":"88451000-8108","location":"西安市沣惠南路34号 "},{"name":"人力资源部 ","job":"人力资源","telephone":"88451000-8018","location":"西安市沣惠南路34号 "},{"name":"保密办公室 ","job":"保密","telephone":"88451000-8068","location":"西安市沣惠南路34号 "},{"name":"条件保障部 ","job":"条件保障","telephone":"88451000-8216","location":"西安市沣惠南路34号 "}],"name":"三六五研究所"},{"department":[{"name":"社区居民委员会-社区办公接待室","job":"接待师生员工、居民的咨询解答","telephone":"88492409","location":"爱生（北）三楼323"},{"name":"社区居民委员会-社区民政事务办","job":"社区建设、医保、遗属、低保户管理","telephone":"88491953","location":"爱生（北）三楼324"},{"name":"经济和文化服务部","job":"思想宣传教育工作;普法宣传和科普工作;社区工会、妇联、共青团工作;经济普查工作;治污减霾工作;志愿者工作","telephone":"88492148","location":"爱生楼（北）3楼"},{"name":"社会保障部","job":"低保和社会救助工作、居民医保工作、居民老龄工作、残疾人工作、外单位退休居民管理服务、计生工作、就业失业工作","telephone":"88462409","location":"爱生楼（北）3楼"},{"name":"综合治理部","job":"社区综合治理工作、维稳工作、环境卫生监督工作、自行车棚管理、居民矛盾调解、流动人口服务、“三官一律”进社区工作、住宅区网格化管理","telephone":"88491953","location":"爱生楼（北）3楼"},{"name":"综合服务部","job":"社区办公室工作;社区人事管理;新闻宣传工作;党支部日常工作;人大、政协工作;纪律监察工作;财、物管理工作;社区服务项目组织和申报","telephone":"88460841","location":"爱生楼（北）3楼"},{"name":"社区居民委员会-社区两委会办","job":"社区居委会、社区党支部管理","telephone":"88491953","location":"爱生（北）三楼328"},{"name":"社区居民委员会-老龄、家政服务、慈善、救助救济双拥优抚办","job":"学校离退休人员 、 社区居民、残疾人、弱势群体管理","telephone":"88492330","location":"爱生（北）三楼326"},{"name":"社区居民委员会-社区警务室（夜间）","job":"师生员工、居民户籍、司法、矫正解教管理","telephone":"88492858","location":"爱生（北）三楼321"},{"name":"社区居民委员会-社区警务室（白天）","job":"师生员工、居民户籍、司法、矫正解教管理","telephone":"88492409","location":"爱生（北）三楼321"},{"name":"社区居民委员会-社区调解办","job":"学校教职工、社区居民、民间事务纠纷、安全生产、维稳信访、群防群治、三官一律进社区管理","telephone":"88492409","location":"爱生（北）三楼322"}],"name":"社区居民委员会"},{"department":[{"name":"社区居民委员会","job":"","telephone":"校外家属退休人员、党员、社区精神文明建设、人大、政协、文体教育、经济科普管理","location":"爱生（北）三楼320"},{"name":"社区居民委员会","job":"","telephone":"社区共青团、工会、妇联、劳动保障、居民养老、医保、退休人员、就业与再就业管理","location":"爱生（北）三楼325"}],"name":"88491953"},{"department":[{"name":"财务审计室兼审计处办公室","job":"财务审计、科研基金结题报告的审签盖章等","telephone":"88492226","location":"学校办公楼A座1楼"},{"name":"工程审计室","job":"工程审计","telephone":"88494040","location":"学校办公楼A座1楼"}],"name":"审计处"},{"department":[{"name":"办公室 ","job":"市校两地综合业务","telephone":"88460825","location":"友谊校区研究生东馆2楼"}],"name":"深圳研究院"},{"department":[{"name":"社区居民委员会","job":"","telephone":"学校师生员工、社区居民、常住、流动人口计生管理","location":"爱生（北）三楼327"}],"name":"88492148"},{"department":[{"name":"审计处 -财务审计室兼审计处办公室 ","job":"财务审计、科研基金结题报告的审签盖章等业务 ","telephone":"88492226","location":"教学中楼 1楼 105"},{"name":"审计处 -工程审计室 ","job":"工程审计 ","telephone":"88494040","location":"教学中楼 1楼 106"}],"name":"审计处 "},{"department":[{"name":"实验中心","job":"教辅、实验室管理、服务","telephone":"88460205","location":"长安校区教学西楼1楼"},{"name":"学院办公室","job":"学院办公室、人事、工会","telephone":"88460332","location":"长安校区教学西楼1楼"},{"name":"生命学院-学院办公室","job":"学院办公室、人事、工会","telephone":"88460332","location":"教学西楼1楼106"},{"name":"生命学院-综合办","job":"研究生教学、党务 本科生教学、科研","telephone":"88460543","location":"教学西楼1楼107"},{"name":"生命学院-实验中心","job":"教辅、实验室管理、服务","telephone":"88460205","location":"教学西楼1楼109"},{"name":"综合办","job":"研究生教学","telephone":"88460543","location":"长安校区教学西楼1楼"},{"name":"生命学院-综合办","job":"研究生教学、党务 本科生教学、科研","telephone":"88460558","location":"教学西楼1楼107"},{"name":"综合办","job":"本科生教学、科研、党委","telephone":"88460769","location":"长安校区教学西楼1楼"}],"name":"生命学院"},{"department":[{"name":"办公室","job":"人事、行政管理","telephone":"88493539","location":"友谊校区翱翔训练馆1楼—3楼"},{"name":"教学管理部","job":"教学管理","telephone":"88460659","location":"友谊校区翱翔训练馆1楼—3楼"},{"name":"科研与学科发展部","job":"科研管理","telephone":"88460659","location":"友谊校区翱翔训练馆1楼—3楼"},{"name":"高水平队管理部","job":"高水平队管理","telephone":"88494023","location":"友谊校区翱翔训练馆1楼—3楼"},{"name":"竞赛群体管理部","job":"群体管理","telephone":"88494023","location":"友谊校区翱翔训练馆1楼—3楼"},{"name":"体育部-教学管理部","job":"教学管理","telephone":"88460659","location":"友谊校区翱翔训练馆1楼—3楼209"},{"name":"体育场馆管理中心办公室（长）","job":"体育场馆管理","telephone":"88431173","location":"友谊校区翱翔训练馆1楼—3楼"},{"name":"体育部-竞赛群体管理部","job":"群体管理","telephone":"88494023","location":"友谊校区翱翔训练馆1楼—3楼103"},{"name":"体育场馆管理中心办公室（友）","job":"体育场馆管理","telephone":"88491776","location":"友谊校区翱翔训练馆1楼—3楼"},{"name":"体育部-高水平队管理部","job":"高水平队管理","telephone":"88494023","location":"友谊校区翱翔训练馆1楼—3楼103"},{"name":"体育部-科研与学科发展部","job":"科研管理","telephone":"88460659","location":"友谊校区翱翔训练馆1楼—3楼104"},{"name":"体育部-体育场馆管理中心办公室","job":"体育场馆管理","telephone":"88491776","location":"友谊校区翱翔训练馆1楼—3楼田径场主席台后（友）"},{"name":"体育部-体育场馆管理中心办公室","job":"体育场馆管理","telephone":"88460192","location":"友谊校区翱翔训练馆1楼—3楼游泳馆二楼（长）"},{"name":"体育部-办公室","job":"人事、行政管理","telephone":"88493539","location":"友谊校区翱翔训练馆1楼—3楼101"}],"name":"体育部"},{"department":[{"name":"图书馆","job":"","telephone":"88492928","location":"图书馆友谊校区图书馆一楼北侧"},{"name":"图书馆-信息技术部","job":"","telephone":"88493632","location":"图书馆友谊校区图书馆一楼北侧"},{"name":"图书馆-办公室","job":"","telephone":"88492361","location":"图书馆友谊校区图书馆二楼北侧"},{"name":"图书馆-文献建设部","job":"","telephone":"88493504","location":"图书馆友谊校区图书馆"},{"name":"读者服务部（长）","job":"图书借阅、解答咨询、馆际互借、文献传递、查收查引；学生离校手续办理；出国审批单盖章；职工退休单盖章","telephone":"88430780","location":"图书馆"},{"name":"文献建设部","job":"","telephone":"88493504","location":"图书馆"},{"name":"办公室","job":"读者意见的收集与回复","telephone":"88492361","location":"图书馆"},{"name":"读者服务部（友）","job":"图书借阅、解答咨询、馆际互借、文献传递、查收查引；学生离校手续办理；出国审批单盖章；职工退休单盖章","telephone":"88493916","location":"图书馆"},{"name":"图书馆-读者服务部（长）","job":"","telephone":"88430927","location":"图书馆图书馆一楼总服务台（长）"},{"name":"信息技术部","job":"","telephone":"88493632","location":"图书馆"},{"name":"图书馆-读者服务部（友）","job":"","telephone":"88493735","location":"图书馆图书馆东馆一楼大厅（友）"}],"name":"图书馆"},{"department":[{"name":"文体部","job":"团学活动场地和团属活动场馆审批","telephone":"88430887","location":"启真楼3楼"},{"name":"团委-文体部","job":"团学活动场地和团属活动场馆审批","telephone":"88430887","location":"长安校区翱翔学生中心西配楼二层224"},{"name":"办公室","job":"团委日常事务管理工作","telephone":"88430890","location":"启真楼3楼"},{"name":"组织部","job":"团费缴纳、团员证补办、团籍管理、团组织关系转接","telephone":"88430887","location":"启真楼3楼"},{"name":"团委-组织部","job":"团籍管理、团组织关系转接","telephone":"88430889","location":"长安校区翱翔学生中心西配楼二层226"},{"name":"团委-办公室","job":"团费缴纳、团员证补办","telephone":"88430890","location":"长安校区翱翔学生中心西配楼二层228"}],"name":"团委"},{"department":[{"name":"学生工作办","job":"学生工作","telephone":"88430922","location":"长安校区外国语学院2楼"},{"name":"教学办公室","job":"研究生、本科生教务","telephone":"88430907","location":"长安校区外国语学院2楼"},{"name":"学院办公室","job":"学院办公室、人事、党务、科研、国际化、工会等综合业务","telephone":"88430908","location":"长安校区外国语学院2楼"},{"name":"外国语学院-学院办公室","job":"综合业务办理","telephone":"88430908","location":"长安校区外国语学院2楼207"},{"name":"外国语学院-教学办公室","job":"研究生、本科生教务","telephone":"88430907","location":"长安校区外国语学院2楼209"},{"name":"外国语学院-学生工作办","job":"学生工作","telephone":"88430922","location":"长安校区外国语学院2楼211"}],"name":"外国语学院"},{"department":[{"name":"综合办公室1","job":"人事、财务、资产、科研管理、接待、用印等","telephone":"88460896","location":"友谊校区 研究生东馆1楼"}],"name":"无人系统发展战略研究中心"},{"department":[{"name":"教学事务办公室","job":"学院教学工作","telephone":"88460907","location":"友谊校区老图书馆4楼"},{"name":"学生事务办公室","job":"学院学生工作","telephone":"88431979","location":"长安校区教学东楼A座4楼"},{"name":"教学事务办公室","job":"学院教学工作","telephone":"88431982","location":"长安校区教学东楼A座4楼"},{"name":"学生事务办公室","job":"学院学生工作","telephone":"88460907","location":"友谊校区老图书馆4楼"},{"name":"学院办公室","job":"学院党建、行政工作","telephone":"88460907","location":"友谊校区老图书馆4楼"},{"name":"学院办公室","job":"学院党建、行政工作","telephone":"88431985","location":"长安校区教学东楼A座4楼"}],"name":"西北工业大学伦敦玛丽女王大学工程学院"},{"department":[{"name":"综合办公室2","job":"人事、财务、资产、科研管理、接待、用印等","telephone":"88460895","location":"友谊校区 研究生东馆1楼"}],"name":"无人系统技术研究院"},{"department":[{"name":"西北工业技术研究院-综合办公室","job":"","telephone":"68682881-8806","location":"锦业路69号"},{"name":"西北工业技术研究院-财务计划处","job":"","telephone":"68682881-8831","location":"锦业路69号"},{"name":"财务计划处","job":"","telephone":"81113262-812","location":"锦业一路52号宝德云谷国际A座8楼"},{"name":"西北工业技术研究院-资产运营处","job":"","telephone":"68682881-8825","location":"锦业路69号"},{"name":"综合办公室","job":"","telephone":"81113262-832","location":"锦业一路52号宝德云谷国际A座8楼"},{"name":"资产运营处","job":"","telephone":"81113262-822","location":"锦业一路52号宝德云谷国际A座8楼"}],"name":"西北工业技术研究院"},{"department":[{"name":"校医院-外壳","job":"相关业务","telephone":"88431193-8011","location":"校医院长安校区"},{"name":"检验科","job":"相关业务","telephone":"88431193-8100","location":"校医院"},{"name":"急诊科（长）","job":"急诊急救、出诊服务","telephone":"88430120","location":"校医院"},{"name":"外壳","job":"相关业务","telephone":"88431193-8011","location":"校医院"},{"name":"急诊科（友）","job":"急诊急救、出诊服务","telephone":"88493920","location":"校医院"},{"name":"财务科","job":"医保报销打款、医疗报销结算","telephone":"88491099","location":"校医院"},{"name":"医务科","job":"医疗业务管理","telephone":"88492327","location":"校医院"},{"name":"校医院-收费室","job":"相关业务","telephone":"88431193-8009","location":"校医院长安校区"},{"name":"校医院-办公室","job":"综合管理、投诉接待","telephone":"88493471","location":"校医院后楼 9315"},{"name":"校医院-防保科","job":"相关业务","telephone":"88430106","location":"校医院长安校区"},{"name":"校医院-药房","job":"相关业务","telephone":"88431193-8002","location":"校医院长安校区"},{"name":"医保办","job":"学生医保、职工医保管理","telephone":"88492549","location":"校医院"},{"name":"校医院-检验科","job":"相关业务","telephone":"88431193-8100","location":"校医院长安校区"},{"name":"收费室","job":"相关业务","telephone":"88431193-8009","location":"校医院"},{"name":"校医院-口腔科","job":"相关业务","telephone":"88431193-8106","location":"校医院长安校区"},{"name":"校医院-急诊科","job":"急诊急救、出诊服务","telephone":"88430120","location":"校医院长安校区"},{"name":"校医院-财务科","job":"医保报销打款、医疗报销结算","telephone":"88491099","location":"校医院后楼 9301"},{"name":"校医院-医务科","job":"医疗业务管理","telephone":"88492327","location":"校医院后楼 9311"},{"name":"校医院-急诊科","job":"急诊急救、出诊服务","telephone":"88493920","location":"校医院前楼 8109"},{"name":"校医院-防保科","job":"预防保健管理","telephone":"88460634","location":"校医院后楼一楼"},{"name":"办公室","job":"综合管理、投诉接待","telephone":"88493471","location":"校医院"},{"name":"校医院-医保办","job":"学生医保、职工医保管理","telephone":"88492549","location":"校医院后楼 9223"},{"name":"防保科","job":"预防保健管理","telephone":"88460634","location":"校医院"},{"name":"防保科","job":"相关业务","telephone":"88430106","location":"校医院"},{"name":"口腔科","job":"相关业务","telephone":"88431193-8106","location":"校医院"},{"name":"药房","job":"相关业务","telephone":"88431193-8002","location":"校医院"}],"name":"校医院"},{"department":[{"name":"校友工作部2","job":"“校友活动周”、校友资料库、校友杂志与媒体宣传、校友分会、校友信息平台建设与管理、校友学生志愿者","telephone":"88491384","location":"东一门阶梯教室"},{"name":"财务部","job":"资金管理、资金运作","telephone":"88493032","location":"东一门阶梯教室"},{"name":"综合办公室","job":"校友接待与服务、“爱心直通车”、办公室综合业务","telephone":"88492542","location":"东一门阶梯教室"},{"name":"校友工作部1","job":"“校友活动周”、校友资料库、校友杂志与媒体宣传、校友分会、校友信息平台建设与管理、校友学生志愿者","telephone":"88460455","location":"东一门阶梯教室"},{"name":"项目管理部","job":"项目管理","telephone":"88493119","location":"东一门阶梯教室"}],"name":"校友总会（教育基金会办公室）"},{"department":[{"name":"校友总会（校友会）、教育基金会办公室-综合办公室","job":"办公室业务","telephone":"88493119","location":"东一门阶梯教室205"},{"name":"校友总会（校友会）、教育基金会办公室-联络与宣传部","job":"“校友活动周”、校友资料库、校友杂志与媒体宣传、校友学生志愿者","telephone":"88491384","location":"东一门阶梯教室203"},{"name":"校友总会（校友会）、教育基金会办公室-联络与宣传部","job":"“校友活动周”、校友资料库、校友杂志与媒体宣传、校友学生志愿者","telephone":"88460455","location":"东一门阶梯教室203"},{"name":"校友总会（校友会）、教育基金会办公室-活动与服务部","job":"校友接待与服务、“爱心直通车”、各地方分会","telephone":"88492542","location":"东一门阶梯教室204"},{"name":"校友总会（校友会）、教育基金会办公室-教育基金会","job":"教育基金","telephone":"88493032","location":"东一门阶梯教室103"}],"name":"校友总会（校友会）、教育基金会办公室"},{"department":[{"name":"多媒体教学管理部","job":"多媒体教学技术支持保障","telephone":"88492316","location":"研究生西馆6楼、7楼"},{"name":"信息中心-多媒体教学管理部","job":"多媒体教室管理","telephone":"88492316","location":"西馆1楼106"},{"name":"数据中心","job":"数据中心建设与管理？","telephone":"88492886","location":"研究生西馆6楼、7楼"},{"name":"应用系统中心","job":"信息化公共平台建设","telephone":"88493092","location":"研究生西馆6楼、7楼"},{"name":"信息中心-信息化建设办公室","job":"信息化建设项目申请和审批","telephone":"88492889","location":"西馆6楼603"},{"name":"网络管理中心","job":"网络建设与管理","telephone":"88495655","location":"研究生西馆6楼、7楼"},{"name":"信息中心-数据中心","job":"翱翔门户和公共数据库管理","telephone":"88492886","location":"西馆7楼710"},{"name":"信息中心-网络管理部","job":"校园网管理和维护","telephone":"88495655","location":"西馆7楼705"},{"name":"综合办公室","job":"事务协调、印信管理","telephone":"88491174","location":"研究生西馆6楼、7楼"},{"name":"信息化建设办公室","job":"信息化建设项目申请和审批","telephone":"88492889","location":"研究生西馆6楼、7楼"},{"name":"信息中心-应用系统部","job":"学校信息系统互联互通、跨部门应用系统建设","telephone":"88493092","location":"西馆7楼707"},{"name":"信息中心-综合办公室","job":"事务协调、印信管理","telephone":"88491174","location":"西馆6楼605"}],"name":"信息中心"},{"department":[{"name":"综合科","job":"校务协调、校务接待","telephone":"88491769","location":"学校办公楼A座1楼、2楼"},{"name":"学校办公室-驻京办事处","job":"对外联络","telephone":"010-63941939","location":""},{"name":"文秘科","job":"公文审核","telephone":"88492164","location":"学校办公楼A座1楼、2楼"},{"name":"信息科","job":"OA系统管理、信息公开、门户信息审核、电子屏管理（电子屏分布：友谊校区-角楼、健翔楼、南苑、西苑；长安校区-数字化大楼、云天苑）","telephone":"88493052","location":"学校办公楼A座1楼、2楼"},{"name":"学术委员会办公室","job":"学术委员会相关工作","telephone":"88494658","location":"学校办公楼A座1楼、2楼"},{"name":"行政科3（友）","job":"校园邮差服务","telephone":"88492179","location":"学校办公楼A座1楼、2楼"},{"name":"安全委员会办公室","job":"安全生产相关工作","telephone":"88493360","location":"学校办公楼A座1楼、2楼"},{"name":"行政科2","job":"公章刻制申请","telephone":"88491911","location":"学校办公楼A座1楼、2楼"},{"name":"学校办公室-文秘科","job":"公文审核","telephone":"88492164","location":"教学中楼1楼、2楼220"},{"name":"行政科3（长）","job":"校园邮差服务","telephone":"88430010","location":"数字化大楼一站式服务大厅"},{"name":"行政科1","job":"印信管理","telephone":"88492261","location":"学校办公楼A座1楼、2楼"},{"name":"学校办公室-信息科","job":"OA系统管理、信息公开、门户信息审核、电子屏管理","telephone":"88493052","location":"教学中楼1楼、2楼215"},{"name":"督办科","job":"信访、督办管理","telephone":"88493360","location":"学校办公楼A座1楼、2楼"},{"name":"学校办公室-综合科","job":"校务协调、校务接待","telephone":"88491769","location":"教学中楼1楼、2楼217"},{"name":"学校办公室-督办科","job":"信访、督办管理","telephone":"88493360","location":"教学中楼1楼、2楼218"},{"name":"学校办公室-机要室","job":"机要收发","telephone":"88492407","location":"教学中楼1楼、2楼226"},{"name":"学校办公室-行政科2","job":"校园邮差服务","telephone":"88430010","location":"教学中楼1楼、2楼222"},{"name":"学校办公室-行政科2","job":"校园邮差服务","telephone":"88492179","location":"教学中楼1楼、2楼222"},{"name":"学校办公室-行政科1","job":"印信管理","telephone":"88492261","location":"教学中楼1楼、2楼121"},{"name":"机要室","job":"机要收发","telephone":"88492407","location":"学校办公楼A座1楼、2楼"}],"name":"学校办公室"},{"department":[{"name":"培养办公室","job":"硕士、博士研究生培养工作","telephone":"88430610","location":"长安校区 启真楼3楼"},{"name":"招生办公室","job":"硕士、博士研究生招生工作","telephone":"88430615","location":"长安校区 启真楼3楼"},{"name":"培养办公室","job":"硕士、博士研究生培养工作","telephone":"88430611","location":"长安校区 启真楼3楼"},{"name":"招生办公室","job":"硕士、博士研究生招生工作","telephone":"88430614","location":"长安校区 启真楼3楼"},{"name":"学科建设办公室","job":"学科建设与评估工作","telephone":"88430634","location":"长安校区 启真楼3楼"},{"name":"综合办公室","job":"研究生院日常管理","telephone":"88430620","location":"长安校区 启真楼3楼"},{"name":"国际交流办公室","job":"研究生国际交流及合作培养工作","telephone":"88430631","location":"长安校区 启真楼3楼"},{"name":"学科建设办公室","job":"学科建设与评估工作","telephone":"88430625","location":"长安校区 启真楼3楼"},{"name":"学科建设办公室","job":"学科建设与评估工作","telephone":"88430630","location":"长安校区 启真楼3楼"},{"name":"质量办公室","job":"研究生质量保障监制管理及信息化建设工作","telephone":"88430623","location":"长安校区 启真楼3楼"},{"name":"质量办公室","job":"研究生质量保障监制管理及信息化建设工作","telephone":"88430624","location":"长安校区 启真楼3楼"},{"name":"学位办公室","job":"硕士、博士学位工作","telephone":"88430613","location":"长安校区 启真楼3楼"},{"name":"学位办公室","job":"硕士、博士学位工作","telephone":"88430612","location":"长安校区 启真楼3楼"}],"name":"研究生院(学科建设办公室)"},{"department":[{"name":"研究生院、学科建设办公室-长安校区集中办公大厅","job":"长安校区日常管理","telephone":"88430018","location":"教学东楼2楼数字化大楼第三会议室"},{"name":"研究生院、学科建设办公室-信息化建设","job":"研究生院信息化建设","telephone":"88494016","location":"教学东楼2楼220、221"},{"name":"研究生院、学科建设办公室-研招办","job":"硕士、博士研究生招生工作","telephone":"88494042","location":"教学东楼2楼218、219"},{"name":"研究生院、学科建设办公室-研招办","job":"硕士、博士研究生招生工作","telephone":"88493042","location":"教学东楼2楼218、219"},{"name":"研究生院、学科建设办公室-研招办","job":"硕士、博士研究生招生工作","telephone":"88460213","location":"教学东楼2楼218、219"},{"name":"研究生院、学科建设办公室-培养办","job":"硕士、博士研究生培养工作","telephone":"88491501","location":"教学东楼2楼214、216、217"},{"name":"研究生院、学科建设办公室-培养办","job":"硕士、博士研究生培养工作","telephone":"88493742","location":"教学东楼2楼214、216、217"},{"name":"研究生院、学科建设办公室-长安校区集中办公大厅","job":"长安校区日常管理","telephone":"88430017","location":"教学东楼2楼数字化大楼第三会议室"},{"name":"研究生院、学科建设办公室-学科建设办","job":"学科建设与评估工作","telephone":"88493743","location":"教学东楼2楼210、213"},{"name":"研究生院、学科建设办公室-国际交流办","job":"研究生国际交流、留学研究生培养工作","telephone":"88495339","location":"教学东楼2楼211"},{"name":"研究生院、学科建设办公室-研招办","job":"硕士、博士研究生招生工作","telephone":"88495927","location":"教学东楼2楼218、219"},{"name":"研究生院、学科建设办公室-研管办","job":"研究生教育工作","telephone":"88460636","location":"教学东楼2楼206、207"},{"name":"研究生院、学科建设办公室-专业学位办","job":"全日制专业学位工作","telephone":"88492304","location":"教学东楼2楼212、215"},{"name":"研究生院、学科建设办公室-学位办","job":"研究生学位工作","telephone":"88492304","location":"教学东楼2楼212、215"},{"name":"研究生院、学科建设办公室-学位办","job":"研究生学位工作","telephone":"88494385","location":"教学东楼2楼212、215"},{"name":"研究生院、学科建设办公室-研管办","job":"研究生教育工作","telephone":"88492723","location":"教学东楼2楼206、207"},{"name":"研究生院、学科建设办公室-综合办","job":"研究生院日常管理","telephone":"88493641","location":"教学东楼2楼220、221"}],"name":"研究生院、学科建设办公室"},{"department":[{"name":"艺术教育中心-办公室","job":"艺术教育中心相关业务工作","telephone":"88430209","location":"长安校区星天苑A座210210"},{"name":"办公室1","job":"艺术教育中心相关业务工作","telephone":"88430208","location":"长安校区启真楼4楼"},{"name":"艺术教育中心-办公室","job":"艺术教育中心相关业务工作","telephone":"88430210","location":"长安校区星天苑A座210210"},{"name":"办公室2","job":"艺术教育中心相关业务工作","telephone":"88430220","location":"长安校区启真楼4楼"}],"name":"艺术教育中心"},{"department":[{"name":"饮食服务公司-长安校区教工餐厅","job":"长安校区教职工餐饮","telephone":"88430303","location":"西苑后勤集团星天苑南餐厅三楼"},{"name":"办公室（友）","job":"","telephone":"88492420","location":"西苑后勤集团"},{"name":"办公室（长）","job":"","telephone":"88430319","location":"西苑后勤集团"},{"name":"饮食服务公司-友谊校区食尚厨房","job":"","telephone":"88493636","location":"北苑餐饮接待、各类酒席"},{"name":"饮食服务公司-友谊校区西苑餐厅","job":"","telephone":"88492543","location":"西苑教职工餐饮及小型接待"},{"name":"友谊校区食尚厨房","job":"北苑餐饮接待、各类酒席","telephone":"88493636","location":"西苑后勤集团"},{"name":"长安校区教工餐厅","job":"长安校区教职工餐饮","telephone":"88430303","location":"西苑后勤集团"},{"name":"饮食服务公司-长安校区接待餐厅","job":"餐饮接待、各类酒席","telephone":"88430326","location":"西苑后勤集团星天苑北餐厅三楼"},{"name":"饮食服务公司-办公室","job":"","telephone":"88430319","location":"西苑后勤集团综合服务大楼B 端 2 楼（长）"},{"name":"友谊校区西苑餐厅","job":"西苑教职工餐饮及小型接待","telephone":"88492543","location":"西苑后勤集团"},{"name":"饮食服务公司-办公室","job":"","telephone":"88492420","location":"西苑后勤集团爱生楼西南角二楼（友）"},{"name":"长安校区接待餐厅","job":"餐饮接待、各类酒席","telephone":"88430326","location":"西苑后勤集团"}],"name":"饮食服务公司"},{"department":[{"name":"友谊物业公司-24 小时服务电话","job":"","telephone":"88491244","location":"水暖电、绿化、保洁"},{"name":"友谊物业公司-办公室","job":"","telephone":"88492381","location":"公司日常事务"},{"name":"办公室","job":"公司日常事务","telephone":"88492381","location":"西苑后勤集团"},{"name":"24 小时服务电话","job":"水暖电、绿化、保洁","telephone":"88491244","location":"西苑后勤集团"}],"name":"友谊物业公司"},{"department":[{"name":"办公室","job":"公司日常事务","telephone":"88460217","location":"西苑后勤集团"},{"name":"班车运行","job":"运输服务公司车队","telephone":"88430122","location":"西苑后勤集团"},{"name":"运输公司-车辆运输服务","job":"","telephone":"88492458","location":"运输服务公司车队"},{"name":"运输公司-班车运行","job":"运输服务公司车队","telephone":"88430122","location":"西苑后勤集团长安校区星天苑A座102"},{"name":"运输公司-办公室","job":"公司日常事务","telephone":"88460217","location":"西苑后勤集团运输服务公司西侧二楼"},{"name":"车辆运输服务","job":"运输服务公司车队","telephone":"88492458","location":"西苑后勤集团"}],"name":"运输公司"},{"department":[{"name":"货物及服务招标采购业务","job":"货物及服务类项目招标采购、合同审签","telephone":"88493786","location":"研究生东馆5楼"},{"name":"综合业务","job":"党建、综合协调、印信管理、文字工作等","telephone":"88460760","location":"研究生东馆5楼"},{"name":"建设工程招标业务","job":"工程类项目公开招标","telephone":"88494919","location":"研究生东馆5楼"},{"name":"货物及服务招标采购业务","job":"货物及服务类项目招标采购、合同审签","telephone":"88460635","location":"研究生东馆5楼"}],"name":"招标与设备采购中心"},{"department":[{"name":"友谊校区正禾超市（办公室）","job":"食品、日用品、办公用品 等团购和零售业务","telephone":"88460444","location":"西苑后勤集团"},{"name":"友谊校区正禾超市（服务台）","job":"食品、日用品、办公用品 等团购和零售业务","telephone":"88460600","location":"西苑后勤集团"},{"name":"正禾商贸公司-长安校区正禾超市（办公室）","job":"食品、日用品、办公用品等团购和零售业务","telephone":"88430307","location":"西苑后勤集团南餐一楼"},{"name":"办公室","job":"公司日常事务、全校大集体工管理工作","telephone":"88494031","location":"西苑后勤集团"},{"name":"长安校区正禾超市（服务台）","job":"食品、日用品、办公用品等团购和零售业务","telephone":"88430310","location":"西苑后勤集团"},{"name":"长安校区正禾超市（办公室）","job":"食品、日用品、办公用品等团购和零售业务","telephone":"88430307","location":"西苑后勤集团"},{"name":"正禾商贸公司-长安校区正禾超市（办公室）","job":"食品、日用品、办公用品等团购和零售业务","telephone":"88430310","location":"西苑后勤集团南餐一楼"},{"name":"正禾商贸公司-友谊校区正禾超市（办公室）","job":"","telephone":"88460444","location":"食品、日用品、办公用品 等团购和零售业务"},{"name":"正禾商贸公司-友谊校区正禾超市（服务台）","job":"","telephone":"88460600","location":"食品、日用品、办公用品 等团购和零售业务"}],"name":"正禾商贸公司"},{"department":[{"name":"正禾物业公司-办公室","job":"","telephone":"88493834","location":"公司日常事务"},{"name":"办公室","job":"公司日常事务","telephone":"88493834","location":"西苑后勤集团"},{"name":"正禾物业公司-服务电话","job":"","telephone":"88460567","location":"西苑后勤集团"},{"name":"24小时服务电话","job":"家庭保洁、洗衣服务等专项物业保障工作","telephone":"88460567","location":"西苑后勤集团"}],"name":"正禾物业公司"},{"department":[{"name":"总经理办公室 ","job":"行政","telephone":"88495528","location":"友谊校区物资楼2楼、4楼 "},{"name":"运管部2","job":"创新科技大楼运营","telephone":"创新大楼管理部88493000","location":"友谊校区物资楼2楼、4楼 "},{"name":"总支秘书 ","job":"党务工作","telephone":"88494062","location":"友谊校区物资楼2楼、4楼 "},{"name":"财务部 1","job":"财务管理","telephone":"88460858","location":"友谊校区物资楼2楼、4楼 "},{"name":"项目部 2","job":"成果转化","telephone":"88460811","location":"友谊校区物资楼2楼、4楼 "},{"name":"党总支书记办公室 ","job":"党务","telephone":"88491138","location":"友谊校区物资楼2楼、4楼 "},{"name":"审计部 1","job":"财务审计","telephone":"88460858","location":"友谊校区物资楼2楼、4楼 "},{"name":"审计部 2","job":"财务审计","telephone":"88460306","location":"友谊校区物资楼2楼、4楼 "},{"name":"运管部1","job":"创新科技大楼运营","telephone":"88460855","location":"友谊校区物资楼2楼、4楼 "},{"name":"企业管理部 ","job":"企业管理","telephone":"88494475","location":"友谊校区物资楼2楼、4楼 "},{"name":"财务部 2","job":"财务管理","telephone":"88491457","location":"友谊校区物资楼2楼、4楼 "},{"name":"项目部 1","job":"成果转化","telephone":"88492891","location":"友谊校区物资楼2楼、4楼 "},{"name":"办公室 ","job":"办公事务","telephone":"88491100","location":"友谊校区物资楼2楼、4楼 "}],"name":"资产经营公司"},{"department":[{"name":"资产经营管理公司-办公室","job":"办公事务","telephone":"88491100","location":"物资楼 4楼"},{"name":"资产经营管理公司-项目部","job":"项目管理","telephone":"88460811","location":"物资楼 1楼"},{"name":"资产经营管理公司-企业管理部","job":"企业管理","telephone":"88492891","location":"物资楼 4楼"},{"name":"资产经营管理公司-财务部","job":"财务管理","telephone":"88491457","location":"物资楼 4楼"}],"name":"资产经营管理公司"},{"department":[{"name":"自动化学院-学院办公室","job":"学科建设、党务、公用房管理、人事、外事、信息宣传、学院网站等","telephone":"88431382","location":"长安校区自动化学院3楼337"},{"name":"本科生办","job":"负责本科生教学管理工作","telephone":"88431392","location":"长安校区自动化学院3楼"},{"name":"本科生辅导员办","job":"本科生思想政治教育与管理","telephone":"88431394","location":"长安校区自动化学院3楼"},{"name":"研究生辅导办","job":"研究生思想政治教育与管理","telephone":"88431396","location":"长安校区自动化学院3楼"},{"name":"研究生办","job":"负责研究生教学管理工作","telephone":"88431391","location":"长安校区自动化学院3楼"},{"name":"自动化学院-本科生辅导员办","job":"本科生思想政治教育与管理","telephone":"88431394","location":"长安校区自动化学院3楼307"},{"name":"自动化学院-研究生办","job":"负责研究生教学管理工作","telephone":"88431391","location":"长安校区自动化学院3楼311"},{"name":"自动化学院-科研秘书","job":"科研管理、学术交流、保密管理","telephone":"88431385","location":"长安校区自动化学院3楼309"},{"name":"自动化学院-本科生办","job":"负责本科生教学管理工作","telephone":"88431392","location":"长安校区自动化学院3楼327"},{"name":"自动化学院-研究生辅导办","job":"研究生思想政治教育与管理","telephone":"88431396","location":"长安校区自动化学院3楼313"},{"name":"学院办公室","job":"学科建设、党务、公用房管理、人事、外事、信息宣传、学院网站等","telephone":"88431389","location":"长安校区自动化学院3楼"},{"name":"科研秘书","job":"科研管理、学术交流、保密管理","telephone":"88431385","location":"长安校区自动化学院3楼"},{"name":"自动化学院-学院办公室","job":"学科建设、党务、公用房管理、人事、外事、信息宣传、学院网站等","telephone":"88431389","location":"长安校区自动化学院3楼337"},{"name":"学院办公室","job":"学科建设、党务、公用房管理、人事、外事、信息宣传、学院网站等","telephone":"88431397","location":"长安校区自动化学院3楼"},{"name":"学院办公室","job":"学科建设、党务、公用房管理、人事、外事、信息宣传、学院网站等","telephone":"88431382","location":"长安校区自动化学院3楼"}],"name":"自动化学院"}]}